,LOCATION ACCOUNT #,BUSINESS NAME,DBA NAME,STREET ADDRESS,CITY,ZIP CODE,LOCATION DESCRIPTION,MAILING ADDRESS,MAILING CITY,MAILING ZIP CODE,NAICS,PRIMARY NAICS DESCRIPTION,COUNCIL DISTRICT,LOCATION START DATE,LOCATION END DATE,LOCATION,Latitude,Longitude
255,0003215362-0001-1,DHB CONSULTING,,21812   MARTINEZ STREET,WOODLAND HILLS,91364-1707,21812 MARTINEZ 91364,21812   MARTINEZ STREET,WOODLAND HILLS,91364-1707,311900.0,"Other food mfg. (including coffee, tea, flavoring, & seasonings)",3,07/17/2017,,"(34.1621, -118.604)",34.1621,-118.604
259,0003215032-0001-6,CHRISTIAN CONTRERAS ARELLANO,OSO'S GRILL,13631 PENN STREET APT #D,WHITTIER,90602-1841,13631 Penn 90602-1841,,,,311900.0,"Other food mfg. (including coffee, tea, flavoring, & seasonings)",0,10/07/2020,,"(33.9757, -118.0299)",33.9757,-118.0299
360,0002700545-0001-4,JINHONG KIM,KIMBOBREX,3414 MONTROSE AVENUE    #6,GLENDALE,91214-4113,3414 MONTROSE 91214-4113,,,,311900.0,"Other food mfg. (including coffee, tea, flavoring, & seasonings)",0,09/05/2013,,"(34.2245, -118.2539)",34.2245,-118.2539
381,0003112453-0001-3,MAMA OAT,,538   BROOKS AVENUE   APT #1,VENICE,90291-3089,538 BROOKS 90291,617 CRESTMOORE PLACE APT #A,VENICE,90291-4874,311900.0,"Other food mfg. (including coffee, tea, flavoring, & seasonings)",11,01/01/2019,,"(33.9947, -118.4696)",33.9947,-118.4696
434,0002870488-0001-4,BAKERY N 1 INC,N.1 BAKERY,5117 SANTA MONICA BLVD,LOS ANGELES,90029-2413,5117 SANTA MONICA 90029-2413,,,,311900.0,"Other food mfg. (including coffee, tea, flavoring, & seasonings)",13,12/02/2015,,"(34.0908, -118.3013)",34.0908,-118.3013
836,0002974792-0001-0,CASA ADO LLC,,12   WASHINGTON BLVD,MARINA DEL REY,90292-5124,12 WASHINGTON 90292-5124,,,,311900.0,"Other food mfg. (including coffee, tea, flavoring, & seasonings)",11,10/01/2015,,"(33.9791, -118.4663)",33.9791,-118.4663
853,0002872841-0001-5,MAMA'S FLAVORS LLC,,22563 FLAMINGO STREET,WOODLAND HILLS,91364-4917,22563 FLAMINGO 91364-4917,,,,311900.0,"Other food mfg. (including coffee, tea, flavoring, & seasonings)",3,10/09/2015,,"(34.1477, -118.6177)",34.1477,-118.6177
939,0002092378-0001-6,GOTO@SILOG LLC,GOTO @ SILOG,14650   ROSCOE BLVD   SUITE #4,PANORAMA CITY,91402-4149,14650 ROSCOE 91402-4149,,,,311900.0,"Other food mfg. (including coffee, tea, flavoring, & seasonings)",6,02/01/2006,,"(34.221, -118.4519)",34.221,-118.4519
1071,0003203797-0001-7,WAFFLECOMB,,9135 RESEDA BLVD    #A,NORTHRIDGE,91324-3050,9135 Reseda 91324-3050,,,,311900.0,"Other food mfg. (including coffee, tea, flavoring, & seasonings)",12,07/21/2020,,"(34.2365, -118.5362)",34.2365,-118.5362
1727,0002840137-0001-8,CEIBO FOODS INC,,11922 VALERIO STREET,NORTH HOLLYWOOD,91605-3734,11922 VALERIO 91605-3734,12807 SHERMAN WAY #1043,NORTH HOLLYWOOD,91605-5034,311900.0,"Other food mfg. (including coffee, tea, flavoring, & seasonings)",2,01/01/2015,,"(34.2048, -118.3926)",34.2048,-118.3926
2470,0002868966-0001-1,GLOWING JUICES LLC,,1557 ECHO PARK AVENUE,LOS ANGELES,90026-2670,1557 ECHO PARK 90026-2670,,,,311900.0,"Other food mfg. (including coffee, tea, flavoring, & seasonings)",13,01/01/2016,,"(34.0812, -118.2545)",34.0812,-118.2545
2608,0002841490-0001-0,VILMA NOEMI BARRIENTOS,,15149 VICTORY BLVD #3,VAN NUYS,91411-1736,15149 VICTORY 91411-1736,,,,311900.0,"Other food mfg. (including coffee, tea, flavoring, & seasonings)",6,07/15/2015,,"(34.1866, -118.4628)",34.1866,-118.4628
3371,0003143531-0001-1,JOSEPH HORACE GREEN,,622   WALL STREET   BUILDING #C,LOS ANGELES,90014-2314,622 WALL 90014-2314,,,,311900.0,"Other food mfg. (including coffee, tea, flavoring, & seasonings)",14,08/15/2019,,"(34.0424, -118.2475)",34.0424,-118.2475
3481,0003307128-0004-6,HG LAX MSC RETAILERS JV,PIER PROVISIONS,380 WORLD WAY SUITE #M222149,LOS ANGELES,90045-5800,380 World 90045-5800,1 MEADOWLANDS PLAZA SUITE #902,EAST RUTHERFORD,07073-2100,311900.0,"Other food mfg. (including coffee, tea, flavoring, & seasonings)",11,04/01/2022,,"(33.9435, -118.4085)",33.9435,-118.4085
3873,0002801188-0001-2,MEALS BY GENET INC,,1053 S FAIRFAX AVENUE,LOS ANGELES,90019-4402,1053 FAIRFAX 90019-4402,,,,311900.0,"Other food mfg. (including coffee, tea, flavoring, & seasonings)",10,01/27/2015,,"(34.0569, -118.3644)",34.0569,-118.3644
4186,0003321830-0001-5,MEXILINK INCORPORATED,,100 N CITRUS STREET SUITE #405,WEST COVINA,91791-1683,100 Citrus 91791-1683,200 WESTLAKE PARK BLVD SUITE #900,HOUSTON,77079-2681,311900.0,"Other food mfg. (including coffee, tea, flavoring, & seasonings)",0,01/01/2015,,"(34.0731, -117.8894)",34.0731,-117.8894
4535,0003067694-0001-1,VENICE CBD LLC,,333   WASHINGTON BLVD   SUITE #505,MARINA DEL REY,90292-5152,333 WASHINGTON 90292,2536 LINCOLN BLVD,VENICE,90291-5043,311900.0,"Other food mfg. (including coffee, tea, flavoring, & seasonings)",11,08/01/2018,,"(33.9808, -118.4642)",33.9808,-118.4642
4837,0003205598-0002-8,C.N.R. PARTNERS INC.,QUICKLY,14851 VICTORY BLVD UNIT #J,VAN NUYS,91411-1558,14851 VICTORY 91411-1558,19341 RUNNYMEDE STREET,RESEDA,91335-2451,311900.0,"Other food mfg. (including coffee, tea, flavoring, & seasonings)",6,05/13/2019,,"(34.187, -118.4571)",34.187,-118.4571
4999,0000202580-0005-7,FARMER BROS CO,,9373 REMICK AVENUE,ARLETA,91331-4222,9373 REMICK 91331-4222,1912 FARMER BROTHERS DRIVE,ROANOKE,76262-1857,311900.0,"Other food mfg. (including coffee, tea, flavoring, & seasonings)",6,09/30/1985,,"(34.2397, -118.4139)",34.2397,-118.4139
5245,0003143608-0001-1,AHPRE NATURALS INC,,1132 S HIGHLAND AVENUE,LOS ANGELES,90019-1750,1132 HIGHLAND 90019-1750,,,,311900.0,"Other food mfg. (including coffee, tea, flavoring, & seasonings)",10,08/16/2019,,"(34.0548, -118.3405)",34.0548,-118.3405
5545,0002830309-0001-6,EILEEN LOPEZ,,13142   HUMMINGBIRD LANE,SYLMAR,91342-4489,13142 HUMMINGBIRD 91342-4489,13142   HUMMINGBIRD LANE,SYLMAR,91342-4489,311900.0,"Other food mfg. (including coffee, tea, flavoring, & seasonings)",7,05/21/2014,,"(34.3094, -118.4252)",34.3094,-118.4252
5621,0003323171-0001-1,JT AND J INVESTMENT LLC,IT'S BOBA TIME WEST HILLS,11447 FERNSIDE LANE,PORTER RANCH,91326-4197,11447 Fernside 91326-4197,22904 VANOWEN STREET,WEST HILLS,91307-2540,311900.0,"Other food mfg. (including coffee, tea, flavoring, & seasonings)",12,06/23/2022,,"(34.2788, -118.568)",34.2788,-118.568
6629,0002862304-0001-7,VEGAN INT'L,HEALTHY TIMES,13303 SATICOY STREET,NORTH HOLLYWOOD,91605-3407,13303 SATICOY 91605-3407,,,,311900.0,"Other food mfg. (including coffee, tea, flavoring, & seasonings)",2,04/01/2015,,"(34.2083, -118.4229)",34.2083,-118.4229
6841,0003134766-0001-2,MARGARITO APARICIO OREGON,,1421   VALENCIA STREET   #103,LOS ANGELES,90015-3257,1421 VALENCIA 90015-3257,,,,311900.0,"Other food mfg. (including coffee, tea, flavoring, & seasonings)",1,07/15/2019,,"(34.0416, -118.2766)",34.0416,-118.2766
7096,0003327289-0001-9,LITTLE MISS CAFE,,5671 W PICO BLVD,LOS ANGELES,90019-3837,5671 Pico 90019-3837,,,,311900.0,"Other food mfg. (including coffee, tea, flavoring, & seasonings)",10,08/10/2022,,"(34.0508, -118.3616)",34.0508,-118.3616
7241,0003321211-0001-3,CROCKO COFFEE LLC,,3916 MELBOURNE AVENUE,LOS ANGELES,90027-4638,3916 Melbourne 90027-4638,21650 OXNARD STREET,WOODLAND HILLS,91367-4901,311900.0,"Other food mfg. (including coffee, tea, flavoring, & seasonings)",4,02/03/2022,,"(34.1033, -118.2782)",34.1033,-118.2782
7244,0003321981-0001-6,MONSTERA TEA HOUSE INC,MONSTERA TEA HOUSE,7222 FOOTHILL BLVD,TUJUNGA,91042-2741,7222 Foothill 91042-2741,,,,311900.0,"Other food mfg. (including coffee, tea, flavoring, & seasonings)",7,06/30/2022,,"(34.2489, -118.2903)",34.2489,-118.2903
7949,0002986441-0001-3,BENGEES LLC,ROOTS & RYE,2134 W SUNSET BLVD   SUITE #D,LOS ANGELES,90026-1695,2134 SUNSET 90026-1695,,,,311900.0,"Other food mfg. (including coffee, tea, flavoring, & seasonings)",13,05/15/2017,,"(34.0771, -118.2647)",34.0771,-118.2647
8268,0002777466-0001-3,ON THE RUN-WAY LLC,CAFE 50'S LAX,11599 GATEWAY BLVD,LOS ANGELES,90064-3009,11599 GATEWAY 90064-3009,,,,311900.0,"Other food mfg. (including coffee, tea, flavoring, & seasonings)",11,08/07/2014,,"(34.0309, -118.4426)",34.0309,-118.4426
8328,0002934540-0001-1,CAFE SANTO INC,CAFE SANTO,221 S SPRUCE STREET,MONTEBELLO,90640-5136,221 SPRUCE 90640-5136,,,,311900.0,"Other food mfg. (including coffee, tea, flavoring, & seasonings)",0,09/22/2016,,"(34.0078, -118.1109)",34.0078,-118.1109
8426,0003184742-0001-9,"VINA BEVERAGES, INC.",,4312 W JEFFERSON BLVD,LOS ANGELES,90016-4115,4312 JEFFERSON 90016,5701 W ADAMS BLVD,LOS ANGELES,90016-2401,311900.0,"Other food mfg. (including coffee, tea, flavoring, & seasonings)",10,02/19/2017,,"(34.0253, -118.3436)",34.0253,-118.3436
8520,0002694540-0006-3,CULINART OF CALIFORNIA INC,COMPASS GROUP NORTH AMERICA,11725 W SUNSET BLVD,LOS ANGELES,90049-2918,11725 SUNSET 90049-2918,2400   YORKMONT ROAD,CHARLOTTE,28217-4511,311900.0,"Other food mfg. (including coffee, tea, flavoring, & seasonings)",11,08/19/2019,,"(34.0651, -118.4716)",34.0651,-118.4716
9062,0002363980-0025-4,STARBUCKS CORPORATION,STARBUCKS COFFEE # 11603,1500   WESTWOOD BLVD,LOS ANGELES,90024-5602,1500 WESTWOOD 90024-5602,POST OFFICE BOX #34442,SEATTLE,98124-1442,311900.0,"Other food mfg. (including coffee, tea, flavoring, & seasonings)",5,09/26/2019,,"(34.054, -118.4402)",34.054,-118.4402
9086,0003229615-0001-7,SANDRA GOMEZ / GEORGE GOMEZ,,14815 BURBANK BLVD APT #2,VAN NUYS,91411-3340,14815 Burbank 91411-3340,,,,311900.0,"Other food mfg. (including coffee, tea, flavoring, & seasonings)",4,01/01/2016,,"(34.1724, -118.4559)",34.1724,-118.4559
9103,0002886150-0002-1,ROMERO OSWALDO RAMIREZ,LABOR DAY,8110 SEPULVEDA PLACE APT #19,PANORAMA CITY,91402-4335,8110 SEPULVEDA 91402-4335,,,,311900.0,"Other food mfg. (including coffee, tea, flavoring, & seasonings)",6,04/13/2022,,"(34.2183, -118.4659)",34.2183,-118.4659
9347,0003099639-0001-6,CLAYTON DAILY,,3932   HAWLEY AVENUE,LOS ANGELES,90032-1418,3932 HAWLEY 90032,3932   HAWLEY AVENUE,LOS ANGELES,90032-1418,311900.0,"Other food mfg. (including coffee, tea, flavoring, & seasonings)",14,01/30/2019,,"(34.0926, -118.1904)",34.0926,-118.1904
9531,0003131822-0001-6,BASEM WISSA,NUMERO 1 ROLLED ICE CREAM,14650   PARTHENIA STREET,PANORAMA CITY,91402-2917,14650 PARTHENIA 91402-2917,7711   RESEDA BLVD   UNIT #17,RESEDA,91335-7480,311900.0,"Other food mfg. (including coffee, tea, flavoring, & seasonings)",6,01/10/2019,,"(34.227, -118.4523)",34.227,-118.4523
10103,0003132101-0001-4,ERICK ARMANDO CERON,ERICK CERON LOS RASPADOS,1133 S VERMONT AVENUE,LOS ANGELES,90006-2781,1133 VERMONT 90006-2781,,,,311900.0,"Other food mfg. (including coffee, tea, flavoring, & seasonings)",1,06/01/2019,,"(34.0498, -118.292)",34.0498,-118.292
10884,0002832765-0001-7,ISB FOOD GROUP LLC,,816 S SANTA FE AVENUE,LOS ANGELES,90021-1725,816 SANTA FE 90021-1725,601 S FIGUEROA STREET SUITE #4450,LOS ANGELES,90017-5737,311900.0,"Other food mfg. (including coffee, tea, flavoring, & seasonings)",14,09/10/2014,,"(34.033, -118.2297)",34.033,-118.2297
11097,0002473766-0002-1,RUZBEHJON INC,MARY AND ROBB WESTWOOD CAFE,1453 WESTWOOD BLVD,LOS ANGELES,90024-4911,1453 Westwood 90024-4911,,,,311900.0,"Other food mfg. (including coffee, tea, flavoring, & seasonings)",5,09/15/2020,,"(34.0541, -118.4411)",34.0541,-118.4411
11377,0003131831-0001-5,ELIZABETH LARA RAMIREZ,LA VILLA MARKET,5257   COMPTON AVENUE,LOS ANGELES,90011-4915,5257 COMPTON 90011-4915,,,,311900.0,"Other food mfg. (including coffee, tea, flavoring, & seasonings)",9,04/10/2019,,"(33.995, -118.2481)",33.995,-118.2481
11400,0002840299-0001-7,JUANA MEYO DE XIQUE,,13770 FOOTHILL BLVD #6,SYLMAR,91342-3127,13770 FOOTHILL 91342-3127,8556 CRANFORD AVENUE,SUN VALLEY,91352-2908,311900.0,"Other food mfg. (including coffee, tea, flavoring, & seasonings)",7,01/01/2013,,"(34.3096, -118.4331)",34.3096,-118.4331
11600,0000008207-0042-2,STARBUCKS CORPORATION,STARBUCKS # 29377,534 S OCCIDENTAL BLVD,LOS ANGELES,90057-1502,534 OCCIDENTAL 90057-1502,POST OFFICE BOX #34442,SEATTLE,98124-1442,311900.0,"Other food mfg. (including coffee, tea, flavoring, & seasonings)",1,06/03/2016,,"(34.0638, -118.2842)",34.0638,-118.2842
11994,0003134750-0001-1,BEAUTIFUL FLOUR FOODS LLC,,9030   OWENSMOUTH AVENUE,CANOGA PARK,91304-1416,9030 OWENSMOUTH 91304-1416,24716   CALLE ALTAMIRA,CALABASAS,91302-3004,311900.0,"Other food mfg. (including coffee, tea, flavoring, & seasonings)",3,07/20/2019,,"(34.2346, -118.6013)",34.2346,-118.6013
12160,0003261328-0001-7,FARMER'S SON LLC,,2617   MANHATTAN BEACH BLVD,REDONDO BEACH,90278-1604,2617 MANHATTAN BEACH 90278,11145   SUNSHINE TERRACE   APT #3,STUDIO CITY,91604-3168,311900.0,"Other food mfg. (including coffee, tea, flavoring, & seasonings)",0,06/22/2021,,"(33.8875, -118.3642)",33.8875,-118.3642
12347,0003256310-0001-7,YAE! ORGANICS INC,,12655 W JEFFERSON BLVD,LOS ANGELES,90066-7008,12655 JEFFERSON 90066-7008,663   VAN SICLEN AVENUE,BROOKLYN,11207-7204,311900.0,"Other food mfg. (including coffee, tea, flavoring, & seasonings)",11,02/21/2019,,"(33.9792, -118.4157)",33.9792,-118.4157
12709,0003091108-0001-1,"HIS NATURAL, INC",,1458 S SAN PEDRO STREET,LOS ANGELES,90015-3144,1458 SAN PEDRO 90015-3144,60   AGAVE,LAKE FOREST,92630-8372,311900.0,"Other food mfg. (including coffee, tea, flavoring, & seasonings)",14,11/01/2018,,"(34.0305, -118.2544)",34.0305,-118.2544
13357,0002834397-0001-9,FADI KHAMASMEIH,QUALITYSTRUCT TRUCKING,6042 FAIR AVENUE,NORTH HOLLYWOOD,91606-4231,6042 FAIR 91606-4231,,,,311900.0,"Other food mfg. (including coffee, tea, flavoring, & seasonings)",2,04/01/2013,,"(34.1801, -118.3746)",34.1801,-118.3746
13413,0003262246-0001-4,FIRST STEP HOSPITALITY INC,PIZZA PIE BROTHERS,19946 VENTURA BLVD,WOODLAND HILLS,91364-2629,19946 Ventura 91364-2629,,,,311900.0,"Other food mfg. (including coffee, tea, flavoring, & seasonings)",3,01/01/2021,,"(34.1715, -118.5676)",34.1715,-118.5676
13554,0000817715-0003-0,HEE SUK YOU,,1300 N VERMONT AVENUE,LOS ANGELES,90027-6005,1300 VERMONT 90027-6005,1201   ELDEN AVENUE,LOS ANGELES,90006-3505,311900.0,"Other food mfg. (including coffee, tea, flavoring, & seasonings)",13,10/05/2015,,"(34.0967, -118.2917)",34.0967,-118.2917
13880,0003195357-0001-6,NANCY MONROY MEZA,,762 E SLAUSON AVENUE,LOS ANGELES,90011-5236,762 SLAUSON 90011-5236,3520 E 57TH STREET #A,MAYWOOD,90270-2580,311900.0,"Other food mfg. (including coffee, tea, flavoring, & seasonings)",9,03/13/2020,,"(33.9887, -118.2612)",33.9887,-118.2612
14046,0002976573-0001-5,JEFFREY SCOTT GREEN,CANARY BIRD WINDOW CLEANING | JEFF'S & MATTY'S COFFEE CART,1553   ARLINGTON AVENUE   #415,LOS ANGELES,90019-3665,1553 ARLINGTON 90019-3665,,,,311900.0,"Other food mfg. (including coffee, tea, flavoring, & seasonings)",10,11/22/2019,,"(34.0439, -118.3178)",34.0439,-118.3178
14145,0003203482-0004-1,THE HUB FOOD MANAGEMENT INC,THE BETTER BAKING COMPANY,14528 BLYTHE STREET,PANORAMA CITY,91402-6006,14528 Blythe 91402-6006,15215 KESWICK STREET,VAN NUYS,91405-1014,311900.0,"Other food mfg. (including coffee, tea, flavoring, & seasonings)",6,01/01/2023,,"(34.2151, -118.4494)",34.2151,-118.4494
14373,0002724332-0016-1,BLUE BOTTLE COFFEE INC,,242 N AVENUE 25 UNIT #232,LOS ANGELES,90031-1984,242 Avenue 25 90031-1984,476 9TH STREET,OAKLAND,94607-4048,311900.0,"Other food mfg. (including coffee, tea, flavoring, & seasonings)",1,07/14/2021,,"(34.0787, -118.2183)",34.0787,-118.2183
14556,0003145233-0003-7,VESSEL CA OPERATIONS LLC,NBRHD KITCHENS,1200 W OLYMPIC BLVD,LOS ANGELES,90015-3906,1200 OLYMPIC 90015-3906,233 PEACHTREE STREET NE SUITE #2600,ATLANTA,30303-1510,311900.0,"Other food mfg. (including coffee, tea, flavoring, & seasonings)",14,11/05/2019,,"(34.0407, -118.2572)",34.0407,-118.2572
14930,0003136447-0001-0,MINZHEN WU,PERFRECT 1 DOLLAR CHINESE FOOD,1713 E VERNON AVENUE   SUITE #106,LOS ANGELES,90058-1729,1713 VERNON 90058-1729,,,,311900.0,"Other food mfg. (including coffee, tea, flavoring, & seasonings)",9,07/01/2019,,"(34.0042, -118.2423)",34.0042,-118.2423
15128,0003180641-0001-7,CHUBBY ORGANICS INC,,6130 AVALON BLVD,LOS ANGELES,90003-1633,6130 AVALON 90003-1633,4139 VIA MARINA    #803,MARINA DEL REY,90292-5365,311900.0,"Other food mfg. (including coffee, tea, flavoring, & seasonings)",9,01/13/2020,,"(33.9835, -118.2642)",33.9835,-118.2642
15499,0003323381-0001-1,SERGEI VOLKOV,,10435 LAS LUNITAS AVENUE,TUJUNGA,91042-1840,10435 Las Lunitas 91042-1840,,,,311900.0,"Other food mfg. (including coffee, tea, flavoring, & seasonings)",7,07/13/2022,,"(34.2587, -118.2916)",34.2587,-118.2916
15527,0002934027-0001-4,BARBARA BETTKE,LA PASSEGGIATA FOODS,2506   SILVER LAKE BLVD,LOS ANGELES,90039-4027,2506 SILVER LAKE 90039-4027,466   FOOTHILL BLVD   #275,LA CANADA,91011-3518,311900.0,"Other food mfg. (including coffee, tea, flavoring, & seasonings)",13,12/01/2016,,"(34.1028, -118.2577)",34.1028,-118.2577
15533,0003027172-0001-9,LISA MALLALIEU,SOPHIA'S FINEST COOKIES,28614 EAGLETON STREET,AGOURA HILLS,91301-1750,28614 EAGLETON 91301-1750,14320   VENTURA BLVD   UNIT #173,SHERMAN OAKS,91423-2717,311900.0,"Other food mfg. (including coffee, tea, flavoring, & seasonings)",0,09/06/2017,,"(34.1638, -118.7502)",34.1638,-118.7502
15820,0002880692-0001-3,NIMNUAL S JURGENSEN,JURGENSEN'S FOODS OF THE WORLD,6351 YOLANDA AVENUE,TARZANA,91335-6847,6351 YOLANDA 91335-6847,,,,311900.0,"Other food mfg. (including coffee, tea, flavoring, & seasonings)",3,01/02/2016,,"(34.186, -118.5407)",34.186,-118.5407
16971,0000382771-0016-6,BON APPETIT MANAGEMENT COMPANY,,111   UNIVERSAL HOLLYWOOD DRIVE,UNIVERSAL CITY,91608-1054,111 UNIVERSAL HOLLYWOOD 91608-1054,201   REDWOOD SHORES PARKWAYS    SUITE #100,REDWOOD CITY,94065-6111,311900.0,"Other food mfg. (including coffee, tea, flavoring, & seasonings)",0,05/27/2019,,"(34.1414, -118.3567)",34.1414,-118.3567
17173,0003208804-0001-5,OLIMPIA ELIZABETH TORRES AMEZQUITA,,17944 SCHOENBORN STREET APT #2,NORTHRIDGE,91325-3854,17944 Schoenborn 91325-3854,,,,311900.0,"Other food mfg. (including coffee, tea, flavoring, & seasonings)",12,08/15/2020,,"(34.2216, -118.5247)",34.2216,-118.5247
17198,0003031099-0001-2,"BLACK FLOUR, LLC",BLACK FLOUR CREPES,2904 OAK AVENUE,MANHATTAN BEACH,90266-2716,2904 OAK 90266-2716,,,,311900.0,"Other food mfg. (including coffee, tea, flavoring, & seasonings)",0,02/20/2018,,"(33.8969, -118.3967)",33.8969,-118.3967
17567,0003320606-0001-8,ANTON REPIN / ANASTASIIA REPINA,,8655 BELFORD AVENUE    #225,LOS ANGELES,90045-4559,8655 Belford 90045-4559,,,,311900.0,"Other food mfg. (including coffee, tea, flavoring, & seasonings)",11,06/25/2022,,"(33.9582, -118.3848)",33.9582,-118.3848
18108,0003209648-0001-9,TG MINAJ LLC,TG MINAJ LLC,5654   CLEMSON STREET   APT,LOS ANGELES,90016-4625,5654 CLEMSON 90016,5654   CLEMSON STREET   APT,LOS ANGELES,90016-4625,311900.0,"Other food mfg. (including coffee, tea, flavoring, & seasonings)",10,08/01/2020,,"(34.0238, -118.3682)",34.0238,-118.3682
18470,0002984457-0001-0,PAULA PAXTOR,PAXTOR WELLNESS CLUB,4428 S BROADWAY,LOS ANGELES,90037-2726,4428 BROADWAY 90037-2726,,,,311900.0,"Other food mfg. (including coffee, tea, flavoring, & seasonings)",9,05/01/2017,,"(34.0032, -118.2782)",34.0032,-118.2782
18612,0003145233-0002-9,VESSEL CA OPERATIONS LLC,REEF KITCHENS,1016 E 14TH PLACE,LOS ANGELES,90021-2601,1016 14th 90021-2601,233 PEACHTREE STREET NE SUITE #2600,ATLANTA,30303-1510,311900.0,"Other food mfg. (including coffee, tea, flavoring, & seasonings)",14,11/05/2019,,"(34.0287, -118.2504)",34.0287,-118.2504
18668,0003054754-0001-7,TORO FOODS INC,,621   GLADYS AVENUE,LOS ANGELES,90021-1003,621 GLADYS 90021-1003,13424   FRANCISQUITO AVENUE   UNIT #A,BALDWIN PARK,91706-8010,311900.0,"Other food mfg. (including coffee, tea, flavoring, & seasonings)",14,06/01/2018,,"(34.0398, -118.2429)",34.0398,-118.2429
19218,0002921886-0001-9,APOSHIAN INVESTMENT INC,JUICY MEATS CO,6131   COLDWATER CANYON AVENUE   UNIT #11 B,NORTH HOLLYWOOD,91606-4346,6131 COLDWATER CANYON 91606-4346,,,,311900.0,"Other food mfg. (including coffee, tea, flavoring, & seasonings)",2,07/19/2016,,"(34.1822, -118.4141)",34.1822,-118.4141
19560,0003159803-0001-4,"MAYA'S FOODS, INC.",,6130   AVALON BLVD   ROOM #121,LOS ANGELES,90003-1633,6130 AVALON 90003,11909   KESSOCK AVENUE,WHITTIER,90604-3048,311900.0,"Other food mfg. (including coffee, tea, flavoring, & seasonings)",9,11/08/2019,,"(33.9835, -118.2642)",33.9835,-118.2642
19563,0003208335-0001-0,"BRIQUE, LLC",,1827 OVERLAND AVENUE,LOS ANGELES,90025-4711,1827 Overland 90025-4711,,,,311900.0,"Other food mfg. (including coffee, tea, flavoring, & seasonings)",5,08/05/2020,,"(34.0504, -118.4324)",34.0504,-118.4324
19938,0002503980-0001-0,ICE WORLD I I I INC,BEN & JERRY'S,9301 TAMPA AVENUE UNIT #121,NORTHRIDGE,91324-5699,9301 TAMPA 91324-5699,19754 YOSEMITE CIRCLE,NORTHRIDGE,91326-4108,311900.0,"Other food mfg. (including coffee, tea, flavoring, & seasonings)",12,05/06/2010,,"(34.2391, -118.5535)",34.2391,-118.5535
20491,0003005038-0001-6,FEEL GOOD SALSA LLC,,21151   HARVARD BLVD,TORRANCE,90501-2923,21151 HARVARD 90501-2923,POST OFFICE BOX #71,TORRANCE,90507-0071,311900.0,"Other food mfg. (including coffee, tea, flavoring, & seasonings)",15,09/01/2017,,"(33.8372, -118.3069)",33.8372,-118.3069
20668,0003400558-0001-0,EYASU NEGASSI,ENQU GROCERY STORE,123 S FIGUEROA STREET,LOS ANGELES,90012-2469,123 Figueroa 90012-2469,,,,311900.0,"Other food mfg. (including coffee, tea, flavoring, & seasonings)",14,01/15/2024,,"(34.0576, -118.2532)",34.0576,-118.2532
21237,0003264665-0001-4,DNTCALLMECHEF LLC,CREATE THE FLAVOR,1915 E 120TH STREET,LOS ANGELES,90059-3007,1915 120TH 90059,1915 E 120TH STREET,LOS ANGELES,90059-3007,311900.0,"Other food mfg. (including coffee, tea, flavoring, & seasonings)",0,08/09/2021,,"(33.9237, -118.2385)",33.9237,-118.2385
23252,0003209521-0001-1,CRWW LIMITED LIABLITY COMPANY,CAFE ROSARITO,17808 CHATSWORTH STREET,GRANADA HILLS,91344-5611,17808 CHATSWORTH 91344-5611,,,,311900.0,"Other food mfg. (including coffee, tea, flavoring, & seasonings)",12,08/18/2020,,"(34.2648, -118.522)",34.2648,-118.522
23324,0003325954-0001-8,FAHEM & MAHEER ENTERPRISES INC,7-ELEVEN STORE 36770B,8254 WHITE OAK AVENUE SUITE #5,NORTHRIDGE,91325-4367,8254 White Oak 91325-4367,POST OFFICE BOX #139044,DALLAS,75313-9044,311900.0,"Other food mfg. (including coffee, tea, flavoring, & seasonings)",12,07/28/2022,,"(34.2206, -118.5185)",34.2206,-118.5185
23400,0002696269-0001-1,ETHICALLY MINDED INC,,407 W 6TH STREET,SAN PEDRO,90731-2631,407 6TH 90731-2631,,,,311900.0,"Other food mfg. (including coffee, tea, flavoring, & seasonings)",15,01/24/2013,,"(33.7387, -118.2858)",33.7387,-118.2858
23464,0003070483-0001-2,"BUONA PASTA, INC.",BUONA PASTA,4073 W WASHINGTON BLVD,LOS ANGELES,90018-1061,4073 WASHINGTON 90018-1061,4073 W WASHINGTON BLVD,LOS ANGELES,90018-1061,311900.0,"Other food mfg. (including coffee, tea, flavoring, & seasonings)",10,01/15/2018,,"(34.0402, -118.3281)",34.0402,-118.3281
23722,0003346613-0001-4,"THE JEWEL DATE COMPANY, INC.",THE DATE GIRL,84675 60TH AVENUE,THERMAL,92274-8780,84675 60th 92274-8780,46 PINE GROVE STREET,WOODSTOCK,12498-1511,311900.0,"Other food mfg. (including coffee, tea, flavoring, & seasonings)",0,12/06/2022,,"(33.611, -116.1925)",33.611,-116.1925
24253,0003061300-0001-2,GALIT LAIBOW,FOODSTIRS,1223 WILSHIRE BLVD,SANTA MONICA,90403-5406,1223 WILSHIRE 90403-5406,1223 WILSHIRE BLVD,SANTA MONICA,90403-5406,311900.0,"Other food mfg. (including coffee, tea, flavoring, & seasonings)",0,05/09/2013,,"(34.0259, -118.4902)",34.0259,-118.4902
24435,0003162098-0001-0,ANNA AVETISYAN,BOMDIGGITY BITES,9030 OWENSMOUTH AVENUE,CANOGA PARK,91304-1416,9030 Owensmouth 91304-1416,15021 VENTURA BLVD,SHERMAN OAKS,91403-2442,311900.0,"Other food mfg. (including coffee, tea, flavoring, & seasonings)",3,11/15/2019,,"(34.2346, -118.6013)",34.2346,-118.6013
24952,0002994130-0001-2,"SUNLIFE ORGANICS 7, INC.",SUNLIFE ORGANICS,10250   SANTA MONICA BLVD   SUITE #1383,LOS ANGELES,90067-6501,10250 SANTA MONICA 90067-6501,23823   MALIBU ROAD   UNIT #528,MALIBU,90265-4628,311900.0,"Other food mfg. (including coffee, tea, flavoring, & seasonings)",5,11/01/2017,,"(34.06, -118.4198)",34.06,-118.4198
25394,0003399455-0001-5,R & A SPHINX INC,SPHINX MARKET,1030 W MARTIN LUTHER KING JR BLVD    #102,LOS ANGELES,90037-1867,1030 Martin Luther King Jr 90037-1867,,,,311900.0,"Other food mfg. (including coffee, tea, flavoring, & seasonings)",9,11/06/2023,,"(34.0105, -118.2927)",34.0105,-118.2927
25498,0000373841-0003-2,STARBUCKS CORPORATION,STARBUCKS COFFEE #58660,12980 FOOTHILL BLVD,SYLMAR,91342-4956,12980 Foothill 91342-4956,POST OFFICE BOX #34442,SEATTLE,98124-1442,311900.0,"Other food mfg. (including coffee, tea, flavoring, & seasonings)",0,09/24/2020,,"(34.2957, -118.4181)",34.2957,-118.4181
25614,0003007008-0001-0,ELAINE WELLNESS LLC,,2355   WESTWOOD BLVD   #942,LOS ANGELES,90064-2109,2355 WESTWOOD 90064-2109,,,,311900.0,"Other food mfg. (including coffee, tea, flavoring, & seasonings)",5,11/04/2015,,"(34.0411, -118.4298)",34.0411,-118.4298
26069,0002249759-0001-6,"ARTHUR B KESSLER, INC",,13603   MARINA POINTE DRIVE   UNIT #C340,MARINA DEL REY,90292-5583,13603 MARINA POINTE 90292-5583,13603   MARINA POINTE DRIVE   UNIT #C340,MARINA DEL REY,90292-9044,311900.0,"Other food mfg. (including coffee, tea, flavoring, & seasonings)",11,02/17/2005,,"(33.9857, -118.4447)",33.9857,-118.4447
26324,0003310070-0001-1,REFUGIO ALEJANDRO RODRIGUEZ RUIZ,REFISNACKS TM,3212 SUNRIDGE COURT,PALMDALE,93550-5685,3212 SUNRIDGE 93550-5685,,,,311900.0,"Other food mfg. (including coffee, tea, flavoring, & seasonings)",0,04/12/2022,,"(34.5685, -118.0712)",34.5685,-118.0712
26472,0003142029-0001-6,DEMETRIO SAHAGUN JR,SALSA LA CORALILLO / ONE OF TWO,145 E EL SEGUNDO BLVD,LOS ANGELES,90061-2346,145 EL SEGUNDO 90061-2346,,,,311900.0,"Other food mfg. (including coffee, tea, flavoring, & seasonings)",0,09/11/2018,,"(33.9165, -118.2726)",33.9165,-118.2726
26476,0003207737-0001-4,GREEN REGIMEN,,101 N VERDUGO ROAD   UNIT #9122,GLENDALE,91226-7808,101 VERDUGO 91226,101 N VERDUGO ROAD   UNIT #9122,GLENDALE,91226-7808,311900.0,"Other food mfg. (including coffee, tea, flavoring, & seasonings)",0,06/14/2020,,"(34.1463, -118.2352)",34.1463,-118.2352
26596,0003143449-0001-3,TIPPHANWAN JARATVIRIYA,KAN TONG SONG FUNG KHONG CAFE,12727   SHERMAN WAY   ##B07,NORTH HOLLYWOOD,91605-5032,12727 SHERMAN 91605-5032,,,,311900.0,"Other food mfg. (including coffee, tea, flavoring, & seasonings)",2,03/16/2019,,"(34.2022, -118.4107)",34.2022,-118.4107
26745,0002980107-0001-8,RUBEN SINANYAN,SPECIAL CAKES,12915   SHERMAN WAY,NORTH HOLLYWOOD,91605-4954,12915 SHERMAN 91605-4954,7313   FARMDALE AVENUE,NORTH HOLLYWOOD,91605-3908,311900.0,"Other food mfg. (including coffee, tea, flavoring, & seasonings)",2,05/01/2017,,"(34.2013, -118.4148)",34.2013,-118.4148
26805,0002383171-0001-5,JUNGAE INC,SHINWOO MYUN OAK,17225 CHATSWORTH STREET UNIT #103,GRANADA HILLS,91344-5771,17225 CHATSWORTH 91344-5771,705 N 31ST AVENUE #1,YAKIMA,98902-1659,311900.0,"Other food mfg. (including coffee, tea, flavoring, & seasonings)",12,08/01/2008,,"(34.2651, -118.5097)",34.2651,-118.5097
26925,0003141678-0001-1,APPLETON'S MARKET INC,,7260   CLINTON STREET,LOS ANGELES,90036-1969,7260 CLINTON 90036,7260   CLINTON STREET,LOS ANGELES,90036-1969,311900.0,"Other food mfg. (including coffee, tea, flavoring, & seasonings)",5,07/01/2019,,"(34.0816, -118.348)",34.0816,-118.348
27001,0003210846-0001-7,ADRIANA ABAD,,14617 VANOWEN STREET    #9,VAN NUYS,91405-3956,14617 Vanowen 91405-3956,,,,311900.0,"Other food mfg. (including coffee, tea, flavoring, & seasonings)",6,09/12/2020,,"(34.1943, -118.4516)",34.1943,-118.4516
27262,0002763265-0001-7,GLENN FISHER,ENGIIS CATERING,23961 DECORO DRIVE APT #208,VALENCIA,91354-4948,23961 DECORO 91354-4948,23961 DECORO DRIVE APT #208,VALENCIA,91354-4948,311900.0,"Other food mfg. (including coffee, tea, flavoring, & seasonings)",0,07/17/2014,,"(34.4444, -118.5559)",34.4444,-118.5559
27383,0002087620-0002-4,LORRINE RAMIREZ,,614 W 52ND PLACE,LOS ANGELES,90037-3706,614 52ND 90037-3706,,,,311900.0,"Other food mfg. (including coffee, tea, flavoring, & seasonings)",9,07/01/2013,,"(33.995, -118.2843)",33.995,-118.2843
27500,0003140296-0001-0,ANAHIT ILANJIAN,NOURICIOUS,6043   LOCKHURST DRIVE,WOODLAND HILLS,91367-2936,6043 LOCKHURST 91367-2936,,,,311900.0,"Other food mfg. (including coffee, tea, flavoring, & seasonings)",3,07/29/2019,,"(34.1805, -118.6497)",34.1805,-118.6497
27682,0003140521-0001-6,MELVIN DAVISON,MEL HOT DOG,1531 W 226TH STREET   #6,TORRANCE,90501-4973,1531 226TH 90501-4973,,,,311900.0,"Other food mfg. (including coffee, tea, flavoring, & seasonings)",15,08/01/2019,,"(33.8215, -118.3051)",33.8215,-118.3051
27810,0003137635-0001-1,ROCKETSHIP COFFEE LLC,ROCKETSHIP COFFEE,7475   MELROSE AVENUE,LOS ANGELES,90046-7525,7475 MELROSE 90046-7525,,,,311900.0,"Other food mfg. (including coffee, tea, flavoring, & seasonings)",5,07/15/2019,,"(34.0839, -118.3528)",34.0839,-118.3528
28211,0002932924-0001-0,SILBIA LEE,BEL FIORE COFFEE,3907   6TH,LOS ANGELES,90020-0000,3907 6TH 90020-0000,,,,311900.0,"Other food mfg. (including coffee, tea, flavoring, & seasonings)",10,09/01/2016,,"(34.0636, -118.308)",34.0636,-118.308
28703,0002988342-0001-4,GOVERNOR COFFEE LLC,WEIRD WAVE COFFEE BREWERS,2415 E CESAR E CHAVEZ AVENUE,LOS ANGELES,90033-3001,2415 CESAR E CHAVEZ 90033-3001,,,,311900.0,"Other food mfg. (including coffee, tea, flavoring, & seasonings)",14,05/25/2017,,"(34.0468, -118.207)",34.0468,-118.207
28998,0003140377-0001-5,ACTION NUTRACEUTICALS,,6130   AVALON BLVD   UNIT #217,LOS ANGELES,90003-1633,6130 AVALON 90003,520 S GRAND AVENUE   OFFICE #320,LOS ANGELES,90071-3024,311900.0,"Other food mfg. (including coffee, tea, flavoring, & seasonings)",9,08/03/2019,,"(33.9835, -118.2642)",33.9835,-118.2642
29041,0003136733-0001-2,MIRNA DEL CARMEN MEJIA DE RUBIO,PUPUSERIA Y ANTOJITOS CHABELITA'S,4100 S BROADWAY,LOS ANGELES,90037-2221,4100 BROADWAY 90037-2221,,,,311900.0,"Other food mfg. (including coffee, tea, flavoring, & seasonings)",9,07/09/2019,,"(34.009, -118.2782)",34.009,-118.2782
29206,0000382771-0017-4,BON APPETIT MANAGEMENT COMPANY,,100   UNIVERSAL CITY PLAZA,UNIVERSAL CITY,91608-1002,100 UNIVERSAL CITY 91608-1002,201   REDWOOD SHORES PARKWAYS    SUITE #100,REDWOOD CITY,94065-6111,311900.0,"Other food mfg. (including coffee, tea, flavoring, & seasonings)",4,08/12/2019,,"(34.1388, -118.3617)",34.1388,-118.3617
29369,0003142988-0001-7,NATALIE PRESTON,CLARITEA,1133   KWIS AVENUE,HACIENDA HEIGHTS,91745-2113,1133 KWIS 91745,1133   KWIS AVENUE,HACIENDA HEIGHTS,91745-2113,311900.0,"Other food mfg. (including coffee, tea, flavoring, & seasonings)",0,08/14/2019,,"(34.0121, -117.9703)",34.0121,-117.9703
29457,0002496154-0001-5,"CAFECITO ORGANICO, LLC",,534 N HOOVER STREET,LOS ANGELES,90004-2309,534 HOOVER 90004-2309,534 N HOOVER STREET,LOS ANGELES,90004-2309,311900.0,"Other food mfg. (including coffee, tea, flavoring, & seasonings)",13,01/01/2010,,"(34.0803, -118.2844)",34.0803,-118.2844
29628,0002616662-0003-7,GROUNDWORK COFFEE LLC,,1501 N CAHUENGA BLVD,LOS ANGELES,90028-7312,1501 CAHUENGA 90028-7312,5457   CLEON AVENUE,NORTH HOLLYWOOD,91601-2834,311900.0,"Other food mfg. (including coffee, tea, flavoring, & seasonings)",13,08/12/2011,,"(34.0983, -118.3298)",34.0983,-118.3298
30339,0003114295-0001-5,LOS TACO HERMANOS LLC,LOS TACOS HERMANOS,843 N LA BREA AVENUE,LOS ANGELES,90038-3340,843 LA BREA 90038-3340,10940   WILSHIRE BLVD   UNIT #1600,LOS ANGELES,90024-3910,311900.0,"Other food mfg. (including coffee, tea, flavoring, & seasonings)",5,05/01/2019,,"(34.0866, -118.3444)",34.0866,-118.3444
30468,0003104213-0001-1,VERDENT WELLNESS LLC,,2554 LINCOLN BLVD    #671,VENICE,90291-5043,2554 LINCOLN 90291-5043,2554   LINCOLN BLVD   UNIT #620,VENICE,90291-5043,311900.0,"Other food mfg. (including coffee, tea, flavoring, & seasonings)",11,06/27/2018,,"(33.9911, -118.448)",33.9911,-118.448
30479,0000619938-0001-4,CONTINENTAL MILLS INC,THE KRUSTEAZ COMPANY,330 N BRAND BLVD SUITE #700,GLENDALE,91203-2336,330 BRAND 91203-2336,POST OFFICE BOX #88176,SEATTLE,98138-2176,311900.0,"Other food mfg. (including coffee, tea, flavoring, & seasonings)",0,01/01/1997,,"(34.1512, -118.2546)",34.1512,-118.2546
30997,0002947005-0001-6,TAZZA INTERNATIONAL INC,,1601 E OLYMPIC BLVD   BUILDING #100,LOS ANGELES,90021-1940,1601 OLYMPIC 90021-1940,,,,311900.0,"Other food mfg. (including coffee, tea, flavoring, & seasonings)",14,07/15/2013,,"(34.0312, -118.2417)",34.0312,-118.2417
31046,0003050955-0001-9,MIGUEL ANGEL AGUILAR JR,CHEFFIN MIGS,1400 GLENWOOD ROAD APT #106,GLENDALE,91201-1918,1400 GLENWOOD 91201-1918,,,,311900.0,"Other food mfg. (including coffee, tea, flavoring, & seasonings)",0,04/25/2018,,"(34.1694, -118.2825)",34.1694,-118.2825
31746,0003138799-0001-6,ERIC ALEJANDRO PARRA LULE,ANGELITOS NUTRITION,2526 S SAN PEDRO STREET,LOS ANGELES,90011-1520,2526 SAN PEDRO 90011-1520,,,,311900.0,"Other food mfg. (including coffee, tea, flavoring, & seasonings)",9,07/19/2019,,"(34.0219, -118.261)",34.0219,-118.261
31913,0003141886-0001-2,YVETT PADILLA,PHATT BOIIZ TACOS/TORTAS,613 W 235TH STREET,CARSON,90745-5131,613 235th 90745-5131,,,,311900.0,"Other food mfg. (including coffee, tea, flavoring, & seasonings)",0,08/06/2019,,"(33.8121, -118.2861)",33.8121,-118.2861
32364,0003141611-0001-8,"RARE TRANSPORTS, LLC",,415 E 32ND STREET   UNIT #A,LOS ANGELES,90011-1921,415 32ND 90011-1921,415 E 32ND STREET   UNIT #A,LOS ANGELES,90011-1921,311900.0,"Other food mfg. (including coffee, tea, flavoring, & seasonings)",9,09/01/2019,,"(34.0188, -118.2676)",34.0188,-118.2676
32685,0002925168-0001-2,SAAD ZAMAN,COCO LOCO HUT,8822   RESEDA BLVD,NORTHRIDGE,91324-4039,8822 RESEDA 91324-4039,,,,311900.0,"Other food mfg. (including coffee, tea, flavoring, & seasonings)",12,08/04/2016,,"(34.2315, -118.5357)",34.2315,-118.5357
32867,0003263806-0001-6,KOMBEE NATION INC,,9206 PETIT AVENUE,NORTHRIDGE,91343-3530,9206 Petit 91343-3530,,,,311900.0,"Other food mfg. (including coffee, tea, flavoring, & seasonings)",12,06/01/2021,,"(34.2379, -118.4976)",34.2379,-118.4976
32995,0003138933-0001-3,BENJAMIN SOLARES HERNANDEZ,YUM YUM DONIUTS FRANCHISE #9520C,6001   LANKERSHIM BLVD,NORTH HOLLYWOOD,91606-4805,6001 LANKERSHIM 91606-4805,,,,311900.0,"Other food mfg. (including coffee, tea, flavoring, & seasonings)",2,07/22/2019,,"(34.1797, -118.3841)",34.1797,-118.3841
33022,0003325342-0001-6,JOSE SALVADOR PASCASIO MEJIA,,3440 WILSHIRE BLVD SUITE #550,LOS ANGELES,90010-2127,3440 Wilshire 90010-2127,,,,311900.0,"Other food mfg. (including coffee, tea, flavoring, & seasonings)",10,07/01/2022,,"(34.0605, -118.2991)",34.0605,-118.2991
33191,0003142505-0001-1,MARIO A COOPER/GEOFREY S MOORE N,N3 COFFEE,1612 S ATLANTIC BLVD,ALHAMBRA,91803-3113,1612 Atlantic 91803-3113,,,,311900.0,"Other food mfg. (including coffee, tea, flavoring, & seasonings)",0,08/09/2019,,"(34.0753, -118.1341)",34.0753,-118.1341
33589,0003000139-0001-2,JUAN ERNESTO SUAREZ MENDOZA,POLLOS TIO ERNESTO,22902   SHERMAN WAY,WEST HILLS,91307-2235,22902 SHERMAN 91307-2235,,,,311900.0,"Other food mfg. (including coffee, tea, flavoring, & seasonings)",12,08/03/2017,,"(34.2007, -118.6258)",34.2007,-118.6258
33980,0003129267-0001-6,POSITIVE PH LLC,,11693   SAN VICENTE BLVD   SUITE #303,LOS ANGELES,90049-5105,11693 SAN VICENTE 90049-5105,,,,311900.0,"Other food mfg. (including coffee, tea, flavoring, & seasonings)",11,07/29/2019,,"(34.054, -118.4655)",34.054,-118.4655
34105,0002363980-0026-2,STARBUCKS CORPORATION,STARBUCKS COFFEE #28816,1630   SEPULVEDA BLVD,HARBOR CITY,90710-1136,1630 SEPULVEDA 90710-1136,POST OFFICE BOX #34442,SEATTLE,98124-1442,311900.0,"Other food mfg. (including coffee, tea, flavoring, & seasonings)",15,09/26/2019,,"(33.8164, -118.3081)",33.8164,-118.3081
34400,0000155172-0013-9,STARBUCKS CORPORATION,STARBUCKS COFFEE #59335,21929 ROSCOE BLVD,CANOGA PARK,91304-3959,21929 Roscoe 91304-3959,POST OFFICE BOX #34442,SEATTLE,98124-1442,311900.0,"Other food mfg. (including coffee, tea, flavoring, & seasonings)",3,12/01/2022,,"(34.2201, -118.6053)",34.2201,-118.6053
34506,0003079836-0001-6,MARIA O DIAZ COREAS,MARIAS CAFE,3012 W PICO BLVD,LOS ANGELES,90006-3804,3012 PICO 90006-3804,,,,311900.0,"Other food mfg. (including coffee, tea, flavoring, & seasonings)",10,10/05/2018,,"(34.0469, -118.3066)",34.0469,-118.3066
34591,0003400574-0001-9,GAYANE DERTLYAN,GAYANE'S BAKEHOUSE,7525 LEMP AVENUE,NORTH HOLLYWOOD,91605-3327,7525 LEMP 91605-3327,7525 LEMP AVENUE,NORTH HOLLYWOOD,91605-3327,311900.0,"Other food mfg. (including coffee, tea, flavoring, & seasonings)",2,11/03/2023,,"(34.2074, -118.3848)",34.2074,-118.3848
35302,0003145233-0010-0,VESSEL CA OPERATIONS LLC,NBRHD KITCHENS,3824 S FIGUEROA STREET,LOS ANGELES,90037-1206,3824 FIGUEROA 90037-1206,233 PEACHTREE STREET NE SUITE #2600,ATLANTA,30303-1504,311900.0,"Other food mfg. (including coffee, tea, flavoring, & seasonings)",9,08/01/2020,,"(34.0151, -118.2826)",34.0151,-118.2826
35370,0002931496-0001-6,BUBBLES DEVIN BAKERIES INC,BUBBLES BAKING CO,15215   KESWICK STREET,VAN NUYS,91405-1014,15215 KESWICK 91405-1014,,,,311900.0,"Other food mfg. (including coffee, tea, flavoring, & seasonings)",6,09/07/2016,,"(34.2107, -118.4646)",34.2107,-118.4646
35389,0002645491-0001-2,MONDELEZ GLOBAL LLC,,3 LAKES DRIVE    #NF 2222,NORTHFIELD,60093-2753,3 LAKES 60093-2753,100 DEFOREST AVENUE #4B-430,EAST HANOVER,07936-2813,311900.0,"Other food mfg. (including coffee, tea, flavoring, & seasonings)",0,10/01/2012,,"(42.1055, -87.7946)",42.1055,-87.7946
35491,0003264836-0001-4,PRECISION FILTER PRODUCTS LLC,,608 MEYER LANE UNIT #104,REDONDO BEACH,90278-5269,608 Meyer 90278-5269,,,,311900.0,"Other food mfg. (including coffee, tea, flavoring, & seasonings)",0,08/02/2021,,"(33.8598, -118.3698)",33.8598,-118.3698
35588,0003263741-0001-0,MARIA G VELAZQUEZ,TAQUERIA LA CIERRA CHIHUAHUA,14311 LEMOLI AVENUE,HAWTHORNE,90250-8532,14311 LEMOLI 90250-8532,3525 HUNTER STREET,LOS ANGELES,90023-3015,311900.0,"Other food mfg. (including coffee, tea, flavoring, & seasonings)",0,08/02/2021,,"(33.9011, -118.3314)",33.9011,-118.3314
36990,0003139975-0001-4,ARNULFO RIVERA,RIVERA FOOD,6117   RUBY PLACE,LOS ANGELES,90042-2128,6117 Ruby 90042-2128,,,,311900.0,"Other food mfg. (including coffee, tea, flavoring, & seasonings)",14,07/26/2019,,"(34.1214, -118.1853)",34.1214,-118.1853
37084,0003208073-0001-1,CAFECITA LLC,,11934 TABOR STREET,LOS ANGELES,90066-2822,11934 TABOR 90066-2822,,,,311900.0,"Other food mfg. (including coffee, tea, flavoring, & seasonings)",11,06/01/2020,,"(34.0108, -118.432)",34.0108,-118.432
37163,0003261844-0001-7,BLUME CHOCOLATE,,16001 S HOOVER STREET,GARDENA,90247-4535,16001 HOOVER 90247,16001 S HOOVER STREET,GARDENA,90247-4535,311900.0,"Other food mfg. (including coffee, tea, flavoring, & seasonings)",15,08/01/2021,,"(33.8863, -118.2875)",33.8863,-118.2875
37256,0002876572-0001-5,DOHENY INVESTMENTS INC,,2160   CENTURY PARKS  E #1402,LOS ANGELES,90067-2244,2160 CENTURY 90067-2244,10573 W PICO BLVD   UNIT #155,LOS ANGELES,90064-2333,311900.0,"Other food mfg. (including coffee, tea, flavoring, & seasonings)",5,12/28/2015,,"(34.0579, -118.4102)",34.0579,-118.4102
37272,0003220828-0001-5,DE LA CALLE CO.,,4312 W JEFFERSON BLVD,LOS ANGELES,90016-4115,4312 JEFFERSON 90016,5701 W ADAMS BLVD,LOS ANGELES,90016-2401,311900.0,"Other food mfg. (including coffee, tea, flavoring, & seasonings)",10,05/03/2019,,"(34.0253, -118.3436)",34.0253,-118.3436
38002,0003138589-0001-6,SUPER FOOD HONEY LLC,SUPERFOOD HONEY,18701   LASSEN STREET,NORTHRIDGE,91324-1963,18701 LASSEN 91324-1963,18653   VENTURA BLVD   #411,TARZANA,91356-4103,311900.0,"Other food mfg. (including coffee, tea, flavoring, & seasonings)",12,07/18/2019,,"(34.2505, -118.5407)",34.2505,-118.5407
38244,0003324963-0001-0,ANA F SANCHEZ,TAQUERIA LA PLEBE AND MORE,15455 CABRITO ROAD,VAN NUYS,91406-1407,15455 Cabrito 91406-1407,23500 THE OLD ROAD #30,NEWHALL,91321-3934,311900.0,"Other food mfg. (including coffee, tea, flavoring, & seasonings)",6,07/21/2022,,"(34.2174, -118.4704)",34.2174,-118.4704
38520,0003398820-0001-7,ARA INCELLDERM INC,,1735 N LA BREA AVENUE    #303,LOS ANGELES,90046-5665,1735 La Brea 90046-5665,,,,311900.0,"Other food mfg. (including coffee, tea, flavoring, & seasonings)",4,10/27/2023,,"(34.1026, -118.346)",34.1026,-118.346
38555,0003260223-0001-9,DUBA BROTHERS LLC,"DUBA, NYA TEA, DUBA TEA, DUBA TEA & SPICE, DUBA SPICE",13155   MARGATE STREET,SHERMAN OAKS,91401-6025,13155 MARGATE 91401,5152   SEPULVEDA BLVD   POST OFFICE BOX #182,LOS ANGELES,90230-5212,311900.0,"Other food mfg. (including coffee, tea, flavoring, & seasonings)",4,07/07/2021,,"(34.1673, -118.4202)",34.1673,-118.4202
38712,0002177759-0001-5,MARIA JULIANA MARTINEZ,JULIANA MARTINEZ ART,21915 WYANDOTTE STREET UNIT #106,CANOGA PARK,91303-3355,21915 WYANDOTTE 91303-3355,8640 SIEMPRE VIVA ROAD,SAN DIEGO,92154-6211,311900.0,"Other food mfg. (including coffee, tea, flavoring, & seasonings)",3,04/01/2005,,"(34.2028, -118.6046)",34.2028,-118.6046
39328,0003194488-0001-2,SAMUEL PALENCIA,YUM YUM DONUTS FRANCHISE 75-Q,4815 VALLEY BLVD    #1,LOS ANGELES,90032-3856,4815 Valley 90032-3856,,,,311900.0,"Other food mfg. (including coffee, tea, flavoring, & seasonings)",14,05/20/2020,,"(34.0667, -118.1799)",34.0667,-118.1799
39675,0000155171-0005-3,STARBUCKS CORPORATION,STARBUCKS COFFEE #8617,4959 EAGLE ROCK BLVD,LOS ANGELES,90041-1921,4959 Eagle Rock 90041-1921,POST OFFICE BOX #34442,SEATTLE,98124-1442,311900.0,"Other food mfg. (including coffee, tea, flavoring, & seasonings)",14,12/12/2023,,"(34.1364, -118.2153)",34.1364,-118.2153
39870,0002603916-0002-5,RYAN ROBINSON,,636 N HILL PLACE   #102B,LOS ANGELES,90012-2243,636 HILL 90012-2243,,,,311900.0,"Other food mfg. (including coffee, tea, flavoring, & seasonings)",1,04/23/2019,,"(34.0607, -118.242)",34.0607,-118.242
40456,0002992801-0001-9,CINTHYA A ESPINOZA,EZ OATS BY CINTHYA,529 W 12TH STREET   UNIT #1,SAN PEDRO,90731-4113,529 12TH 90731-4113,434 E VICTORIA STREET,CARSON,90746-1805,311900.0,"Other food mfg. (including coffee, tea, flavoring, & seasonings)",15,06/22/2017,,"(33.7331, -118.2887)",33.7331,-118.2887
40998,0002691976-0001-1,HARMONIE LLC,HARMONIE TEA,1915 MALCOLM AVENUE UNIT #402,LOS ANGELES,90025-4796,1915 MALCOLM 90025-4796,,,,311900.0,"Other food mfg. (including coffee, tea, flavoring, & seasonings)",5,07/16/2013,,"(34.049, -118.4334)",34.049,-118.4334
41020,0003208734-0001-8,UNCLE SKY'S LLC,,514   CASANOVA STREET   BUILDING,LOS ANGELES,90012-1027,514 CASANOVA 90012,514   CASANOVA STREET   BUILDING,LOS ANGELES,90012-1027,311900.0,"Other food mfg. (including coffee, tea, flavoring, & seasonings)",1,06/15/2020,,"(34.0743, -118.2306)",34.0743,-118.2306
41186,0003001442-0001-6,MASIENDA,,11515 W PICO BLVD,LOS ANGELES,90064-1519,11515 PICO 90064-1519,,,,311900.0,"Other food mfg. (including coffee, tea, flavoring, & seasonings)",11,02/27/2017,,"(34.0333, -118.443)",34.0333,-118.443
41641,0002992932-0001-2,DULCE MONTANO,FUTITAS,15828   ARMINTA STREET,VAN NUYS,91406-1915,15828 ARMINTA 91406-1915,8627 LUBAO AVENUE,WINNETKA,91306-1433,311900.0,"Other food mfg. (including coffee, tea, flavoring, & seasonings)",6,08/01/2017,,"(34.2134, -118.4784)",34.2134,-118.4784
41780,0003325541-0001-8,EPIFANIO CASTRO,,207 E 118TH STREET,LOS ANGELES,90061-2423,207 118th 90061-2423,,,,311900.0,"Other food mfg. (including coffee, tea, flavoring, & seasonings)",15,01/01/2018,,"(33.9267, -118.2715)",33.9267,-118.2715
41796,0000025576-0002-0,ABRAHAM JLENKERIAN / GAYANE SMSARYAN,BON CAFETIT,11614 SOPHIA AVENUE,GRANADA HILLS,91344-3043,11614 SOPHIA 91344-3043,,,,311900.0,"Other food mfg. (including coffee, tea, flavoring, & seasonings)",12,12/05/2010,,"(34.2812, -118.4866)",34.2812,-118.4866
41852,0003312915-0001-0,PINK PEPPERCORN LLC,UNDERGROUND RAW,9009 GIBSON STREET,LOS ANGELES,90034-1922,9009 Gibson 90034-1922,,,,311900.0,"Other food mfg. (including coffee, tea, flavoring, & seasonings)",5,04/29/2022,,"(34.0378, -118.3888)",34.0378,-118.3888
42209,0003400806-0001-7,BRYAN ALEXANDER RAMIREZ,FIESTA MINI MALL,225 E 69TH STREET,LOS ANGELES,90003-1511,225 69th 90003-1511,,,,311900.0,"Other food mfg. (including coffee, tea, flavoring, & seasonings)",9,11/14/2023,,"(33.9773, -118.2709)",33.9773,-118.2709
42759,0002629372-0004-2,TIERRA MIA COFFEE COMPANY,TIERRA MIA COFFEE COMPANY,2108 N BROADWAY,LOS ANGELES,90031-2205,2108 BROADWAY 90031-2205,2108 N BROADWAY,LOS ANGELES,90031-2205,311900.0,"Other food mfg. (including coffee, tea, flavoring, & seasonings)",1,09/01/2019,,"(34.073, -118.2185)",34.073,-118.2185
43033,0003324332-0001-5,O2VIS HEALTH USA INC,,981 S WESTERN AVENUE    #305,LOS ANGELES,90006-1077,981 Western 90006-1077,,,,311900.0,"Other food mfg. (including coffee, tea, flavoring, & seasonings)",10,07/18/2022,,"(34.0532, -118.3094)",34.0532,-118.3094
43422,0003147981-0001-1,RAUL GONZALEZ VALENCIA,LA TAQUIZZA,713 E 85TH STREET,LOS ANGELES,90001-3626,713 85TH 90001-3626,,,,311900.0,"Other food mfg. (including coffee, tea, flavoring, & seasonings)",9,01/01/2018,,"(33.9613, -118.2624)",33.9613,-118.2624
43473,0002983709-0002-6,POPS BROOKLYN BAGELS LLC,POP'S BAGELS,11419 SANTA MONICA BLVD    #24,LOS ANGELES,90025-3009,11419 SANTA MONICA 90025-3009,,,,311900.0,"Other food mfg. (including coffee, tea, flavoring, & seasonings)",11,12/01/2019,,"(34.046, -118.4516)",34.046,-118.4516
43498,0003388347-0001-9,AL SAJ LLC,,9030 OWENSMOUTH AVENUE UNIT #5,CANOGA PARK,91304-1416,9030 OWENSMOUTH 91304-1416,16821 NANETTE STREET,GRANADA HILLS,91344-1812,311900.0,"Other food mfg. (including coffee, tea, flavoring, & seasonings)",3,08/14/2023,,"(34.2343, -118.6013)",34.2343,-118.6013
43536,0003209754-0001-2,CANAPA BATTAGLIA LLC,,13145   LAKE STREET,LOS ANGELES,90066-2204,13145 LAKE 90066,13145   LAKE STREET,LOS ANGELES,90066-2204,311900.0,"Other food mfg. (including coffee, tea, flavoring, & seasonings)",11,09/15/2020,,"(34.0085, -118.4527)",34.0085,-118.4527
43692,0002100115-0001-8,JACK KARULETWA,SILVER BACK COFFEE OF RWANDA INC,817 VENICE BLVD,LOS ANGELES,90015-3227,817 VENICE 90015-3227,,,,311900.0,"Other food mfg. (including coffee, tea, flavoring, & seasonings)",1,06/01/2006,,"(34.0397, -118.2745)",34.0397,-118.2745
43821,0003209648-0002-7,TG MINAJ LLC,CANTALOOP,7095 HOLLYWOOD BLVD UNIT #106,LOS ANGELES,90028-8910,7095 Hollywood 90028-8910,,,,311900.0,"Other food mfg. (including coffee, tea, flavoring, & seasonings)",13,07/02/2022,,"(34.1019, -118.345)",34.1019,-118.345
44058,0003146874-0001-6,CRISTINA MARTINEZ GONZALEZ / JIUBERTH AGUILAR RIVAS,CAFE EL DIVISADERO,427  1/2 N RAMPART BLVD,LOS ANGELES,90026-5199,427 RAMPART 90026-5199,,,,311900.0,"Other food mfg. (including coffee, tea, flavoring, & seasonings)",13,08/30/2019,,"(34.0744, -118.274)",34.0744,-118.274
44935,0000979906-0002-7,ALMAZ ASSEFA,ALMIE ETHIOPIAN ORGANIC COFFEE,526 N HAYWORTH AVENUE #205,LOS ANGELES,90048-2794,526 HAYWORTH 90048-2794,7575 LIME AVENUE,FONTANA,92336-3117,311900.0,"Other food mfg. (including coffee, tea, flavoring, & seasonings)",5,10/23/2013,,"(34.0805, -118.3626)",34.0805,-118.3626
45333,0002627157-0001-2,MELINDA MOLINARY,,11565 LA MAIDA STREET,VALLEY VILLAGE,91601-4326,11565 LA MAIDA 91601-4326,11565 LA MAIDA STREET,VALLEY VILLAGE,91601-4326,311900.0,"Other food mfg. (including coffee, tea, flavoring, & seasonings)",2,07/23/2012,,"(34.1586, -118.384)",34.1586,-118.384
45927,0003147677-0001-1,HOLMES CHICKEN SAUSAGE,HOLMES CHICKEN SAUSAGE,12020 S CENTRAL AVENUE,LOS ANGELES,90059-2839,12020 CENTRAL 90059,12020 S CENTRAL AVENUE,LOS ANGELES,90059-2839,311900.0,"Other food mfg. (including coffee, tea, flavoring, & seasonings)",15,05/02/2017,,"(33.9232, -118.2539)",33.9232,-118.2539
46091,0002363980-0016-5,STARBUCKS CORPORATION,STARBUCKS COFFEE #24163,5929 W SUNSET BLVD,LOS ANGELES,90028-7262,5929 SUNSET 90028-7262,POST OFFICE BOX #34442,SEATTLE,98124-1442,311900.0,"Other food mfg. (including coffee, tea, flavoring, & seasonings)",13,09/27/2019,,"(34.0984, -118.319)",34.0984,-118.319
46207,0002835221-0001-5,MATHIS FOODS INC,,4301 EXPOSITION BLVD,LOS ANGELES,90016-4108,4301 EXPOSITION 90016,4301 EXPOSITION BLVD,LOS ANGELES,90016-4108,311900.0,"Other food mfg. (including coffee, tea, flavoring, & seasonings)",10,01/01/2015,,"(34.0237, -118.3428)",34.0237,-118.3428
46384,0003303401-0001-8,MICHAEL BONURA,AQUA CAFE,517 OCEAN FRONT WALKS  UNIT #12,VENICE,90291-2428,517 Ocean Front 90291-2428,,,,311900.0,"Other food mfg. (including coffee, tea, flavoring, & seasonings)",11,03/08/2022,,"(33.993, -118.4787)",33.993,-118.4787
46494,0003249618-0001-3,D & J PAN-AFRIKAN FOOD & SNACK TRUCK,D & J PAN-AFRIKAN ICE CREAM,2709 W BILLINGS STREET,COMPTON,90220-3909,2709 BILLINGS 90220-3909,,,,311900.0,"Other food mfg. (including coffee, tea, flavoring, & seasonings)",0,04/19/2021,,"(33.8807, -118.2565)",33.8807,-118.2565
46498,0002664501-0001-3,RODOLFO AGUILAR,VIVA TACO AZTECA,5138 N FIGUEROA STREET,HIGHLAND PARK,90042-3922,5138 FIGUEROA 90042-3922,1445 E MAPLE STREET,GLENDALE,91205-2772,311900.0,"Other food mfg. (including coffee, tea, flavoring, & seasonings)",1,01/01/2013,,"(34.1058, -118.2003)",34.1058,-118.2003
47152,0002285742-0002-5,NEW HIGH MART LLC,NEHIMA,4650   KINGSWELL AVENUE,LOS ANGELES,90027-4302,4650 KINGSWELL 90027,,,,311900.0,"Other food mfg. (including coffee, tea, flavoring, & seasonings)",4,07/20/2021,,"(34.1024, -118.2903)",34.1024,-118.2903
47820,0003267288-0001-4,TRUE HEALTH LOVE LLC,,15136 STAGG STREET,VAN NUYS,91405-1025,15136 STAGG 91405-1025,13035   PORTOLA WAY,SYLMAR,91342-3458,311900.0,"Other food mfg. (including coffee, tea, flavoring, & seasonings)",6,07/14/2020,,"(34.2119, -118.4631)",34.2119,-118.4631
48669,0002350807-0001-3,MEHREEN INC,7 ELEVEN STORE #39095A | 7-11 FOOD STORE,12403 VENICE BLVD,LOS ANGELES,90066-3803,12403 VENICE 90066-3803,POST OFFICE BOX #219088,DALLAS,75221-9088,311900.0,"Other food mfg. (including coffee, tea, flavoring, & seasonings)",11,06/13/2008,,"(34.0036, -118.4336)",34.0036,-118.4336
49426,0002250516-0001-2,RICHARD P TAN,RICHARD P TAN / RICH FOODS / RICH SERVICES,9129   WYSTONE AVENUE,NORTHRIDGE,91324-2829,9129 WYSTONE 91324-2829,9129   WYSTONE AVENUE,NORTHRIDGE,91324-2829,311900.0,"Other food mfg. (including coffee, tea, flavoring, & seasonings)",12,03/08/2007,,"(34.2364, -118.5472)",34.2364,-118.5472
49730,0003205598-0003-6,C.N.R. PARTNERS INC.,QUICKLY,8111   VAN NUYS BLVD   UNIT #104,VAN NUYS,91402-4808,8111 VAN NUYS 91402-1558,19341   RUNNYMEDE STREET,RESEDA,91335-2451,311900.0,"Other food mfg. (including coffee, tea, flavoring, & seasonings)",6,01/01/2021,,"(34.2182, -118.4492)",34.2182,-118.4492
50291,0003230384-0001-4,WHA INVESTMENTS LLC,,1788 PALISADES DRIVE,PACIFIC PALISADES,90272-2117,1788 Palisades 90272-2117,,,,311900.0,"Other food mfg. (including coffee, tea, flavoring, & seasonings)",11,12/18/2012,,"(34.0748, -118.5582)",34.0748,-118.5582
50504,0000037459-0008-8,STARBUCKS CORPORATION,STARBUCKS COFFEE COMPANY # 29863,11109   SEPULVEDA BLVD,MISSION HILLS,91345-1113,11109 SEPULVEDA 91345-1113,POST OFFICE BOX #34442,SEATTLE,98124-1442,311900.0,"Other food mfg. (including coffee, tea, flavoring, & seasonings)",7,04/12/2017,,"(34.2724, -118.468)",34.2724,-118.468
50659,0002868768-0001-3,KIM & KOMPANY KOOKIES KATERING & KAKES,KIM & KOMPANY KOOKIES KATERING & KAKES,12467 GLAMIS STREET,PACOIMA,91331-2052,12467 GLAMIS 91331-2052,,,,311900.0,"Other food mfg. (including coffee, tea, flavoring, & seasonings)",7,11/19/2015,,"(34.2657, -118.4047)",34.2657,-118.4047
50752,0003383198-0001-9,4 SEASONS OF LOVE HERB & SPICE LLC,,3894 CRENSHAW BLVD UNIT #561758,LOS ANGELES,90056-3085,3894 Crenshaw 90056-3085,,,,311900.0,"Other food mfg. (including coffee, tea, flavoring, & seasonings)",10,07/12/2023,,"(34.0148, -118.3345)",34.0148,-118.3345
51521,0002391694-0001-9,GERARDO NUNO,TACOS MICHOACAN,15414 CHATSWORTH STREET,MISSION HILLS,91345-1906,15414 CHATSWORTH 91345-1906,,,,311900.0,"Other food mfg. (including coffee, tea, flavoring, & seasonings)",7,11/21/2008,,"(34.2645, -118.4677)",34.2645,-118.4677
51670,0002752241-0002-6,ZACCHEUS JARED RICHARDSON,BIG BEAUTIFUL BBQ,1315 N ALEXANDRIA AVENUE,LOS ANGELES,90027-5801,1315 Alexandria 90027-5801,,,,311900.0,"Other food mfg. (including coffee, tea, flavoring, & seasonings)",13,07/10/2023,,"(34.0958, -118.2987)",34.0958,-118.2987
51744,0003381572-0001-2,CECILIA MATUS RAMIREZ,RINCONCITO COLUMBIANO #2,2615 W 7TH STREET,LOS ANGELES,90057-3803,2615 7th 90057-3803,,,,311900.0,"Other food mfg. (including coffee, tea, flavoring, & seasonings)",1,07/15/2023,,"(34.0592, -118.2828)",34.0592,-118.2828
51807,0000008207-0053-8,STARBUCKS CORPORATION,STARBUCKS #55650,4700 W SUNSET BLVD,LOS ANGELES,90027-6082,4700 SUNSET 90027-6082,POST OFFICE BOX #34442,SEATTLE,98124-1442,311900.0,"Other food mfg. (including coffee, tea, flavoring, & seasonings)",13,09/27/2019,,"(34.0978, -118.2921)",34.0978,-118.2921
51848,0002569396-0002-1,DIANE ARCHEN CARTER,D'S TASTY CAKES & PIES,4711 NATICK AVENUE #129,SHERMAN OAKS,91403-2788,4711 NATICK 91403-2788,,,,311900.0,"Other food mfg. (including coffee, tea, flavoring, & seasonings)",4,10/21/2014,,"(34.155, -118.4541)",34.155,-118.4541
51918,0002950553-0001-1,SASAN JELDAN,COOLINN,22342   WYANDOTTE STREET,CANOGA PARK,91303-1030,22342 WYANDOTTE 91303-1030,,,,311900.0,"Other food mfg. (including coffee, tea, flavoring, & seasonings)",3,12/21/2016,,"(34.2026, -118.6137)",34.2026,-118.6137
51939,0000229911-0001-0,DANIEL ROBERT WINTHROP,,3428   MOTOR AVENUE,LOS ANGELES,90034-4765,3428 MOTOR 90034-4765,,,,311900.0,"Other food mfg. (including coffee, tea, flavoring, & seasonings)",5,01/01/2010,,"(34.0274, -118.4088)",34.0274,-118.4088
51999,0003297743-0001-7,VICENTE MENDOZA,VARIEDADES KERALIZTANY,8716 S VERMONT AVENUE,LOS ANGELES,90044-4830,8716 Vermont 90044-4830,7513 S SAN PEDRO STREET,LOS ANGELES,90003-2311,311900.0,"Other food mfg. (including coffee, tea, flavoring, & seasonings)",8,12/20/2021,,"(33.9587, -118.2912)",33.9587,-118.2912
52215,0002700012-0001-9,KANS USA INC,LA CREME,7376 MELROSE AVENUE,LOS ANGELES,90046-7527,7376 MELROSE 90046-7527,1427 WILCOX AVENUE,LOS ANGELES,90028-8123,311900.0,"Other food mfg. (including coffee, tea, flavoring, & seasonings)",5,09/01/2013,,"(34.0835, -118.3505)",34.0835,-118.3505
52801,0003379924-0001-8,ALIA AHTEN,LADY LARVAE,10249 WHEATLAND AVENUE,SUNLAND,91040-1259,10249 Wheatland 91040-1259,POST OFFICE BOX #8252,LA CRESCENTA,91224-0252,311900.0,"Other food mfg. (including coffee, tea, flavoring, & seasonings)",7,06/21/2023,,"(34.2566, -118.3581)",34.2566,-118.3581
53136,0003381242-0001-7,HATSU RANDO LLC,TSUNAGI GRILL,21415 S VERMONT AVENUE UNIT #24,TORRANCE,90502-1930,21415 Vermont 90502-1930,,,,311900.0,"Other food mfg. (including coffee, tea, flavoring, & seasonings)",0,07/13/2023,,"(33.8336, -118.2915)",33.8336,-118.2915
53520,0002726796-0001-0,CHOCTAL LLC,CHOCTAL LLC,170 S EUCLID AVENUE,PASADENA,91101-2421,170 EUCLID 91101-2421,,,,311900.0,"Other food mfg. (including coffee, tea, flavoring, & seasonings)",0,01/08/2014,,"(34.1429, -118.1428)",34.1429,-118.1428
53853,0003298972-0001-7,CHRISTOPHER GORDON,BABY LET'S EAT/BLE,12128 HUSTON STREET,VALLEY VILLAGE,91607-3615,12128 Huston 91607-3615,15136 STAGG STREET,VAN NUYS,91405-1025,311900.0,"Other food mfg. (including coffee, tea, flavoring, & seasonings)",2,02/22/2022,,"(34.1592, -118.3975)",34.1592,-118.3975
54217,0002499579-0001-0,FREEDY FRANCH LLC,WETZEL'S PRETZELS,8500 BEVERLY BLVD UNIT #702,LOS ANGELES,90048-6277,8500 BEVERLY 90048-6277,,,,311900.0,"Other food mfg. (including coffee, tea, flavoring, & seasonings)",5,08/01/2010,,"(34.076, -118.3765)",34.076,-118.3765
54445,0003278807-0001-3,RWA BROTHERS INC,7-ELEVEN STORE 38274B,4209 W WASHINGTON BLVD,LOS ANGELES,90016-1879,4209 Washington 90016-1879,POST OFFICE BOX #219088,DALLAS,75221-9088,311900.0,"Other food mfg. (including coffee, tea, flavoring, & seasonings)",10,10/18/2021,,"(34.0402, -118.3313)",34.0402,-118.3313
55284,0000643608-0002-2,JOSHUA BROW,THE HERBAL CHEF,16700 CHATSWORTH STREET UNIT #B-6,GRANADA HILLS,91344-6516,16700 CHATSWORTH 91344-6516,36921   SNAPDRAGON COURT,PALMDALE,93552-5452,311900.0,"Other food mfg. (including coffee, tea, flavoring, & seasonings)",12,07/07/2007,,"(34.2647, -118.4955)",34.2647,-118.4955
55567,0003380570-0001-6,GEORGE REID,JERKEY CARIBBEAN CUISINE,1800 W 11TH STREET,LOS ANGELES,90006-3708,1800 11th 90006-3708,,,,311900.0,"Other food mfg. (including coffee, tea, flavoring, & seasonings)",1,08/25/2023,,"(34.0487, -118.2778)",34.0487,-118.2778
55967,0000882325-0002-1,DIVINE PASTA CO /C,DVINE PASTA,545 S CENTRAL AVENUE,LOS ANGELES,90013-1714,545 CENTRAL 90013-1714,550 CERES AVENUE,LOS ANGELES,90013-1717,311900.0,"Other food mfg. (including coffee, tea, flavoring, & seasonings)",14,01/01/2010,,"(34.0404, -118.2398)",34.0404,-118.2398
56035,0003289711-0001-5,MOON GAB LEE,SIROO INTERNATIONAL FOODS,1059 S ALVARADO STREET UNIT #A,LOS ANGELES,90006-3857,1059 ALVARADO 90006-3857,1712 S HOOVER STREET,LOS ANGELES,90006-4912,311900.0,"Other food mfg. (including coffee, tea, flavoring, & seasonings)",1,01/10/2022,,"(34.0503, -118.2809)",34.0503,-118.2809
56225,0003167191-0001-2,SOLOMON U LORENZANA JR,,2506 S GAFFEY STREET,SAN PEDRO,90731-6325,2506 GAFFEY 90731-6325,,,,311900.0,"Other food mfg. (including coffee, tea, flavoring, & seasonings)",15,12/13/2019,,"(33.721, -118.2926)",33.721,-118.2926
56284,0003251235-0002-1,DT CAL LLC,DEL TACO # 1272,19309   ROSCOE BLVD,NORTHRIDGE,91324-4242,19309 ROSCOE 91324,17412   VENTURA BLVD   UNIT #415,ENCINO,91316-3827,311900.0,"Other food mfg. (including coffee, tea, flavoring, & seasonings)",12,03/24/2021,,"(34.2208, -118.5539)",34.2208,-118.5539
56285,0003213556-0001-8,ERICK RIVERA,ANGEL CITY COFFEE,5128 BUCHANAN STREET,LOS ANGELES,90042-2342,5128 Buchanan 90042-2342,,,,311900.0,"Other food mfg. (including coffee, tea, flavoring, & seasonings)",1,03/18/2017,,"(34.1189, -118.2043)",34.1189,-118.2043
56524,0002055301-0002-3,SHAPOUR MIRZAEI,SMD,6943 SHOUP AVENUE,WEST HILLS,91307-2640,6943 SHOUP 91307-2640,,,,311900.0,"Other food mfg. (including coffee, tea, flavoring, & seasonings)",3,03/12/2009,,"(34.1965, -118.6146)",34.1965,-118.6146
56996,0003252876-0001-8,DREAMTOX LLC,,6740 BRYNHURST AVENUE,LOS ANGELES,90043-4608,6740 Brynhurst 90043-4608,124 E 121ST STREET,LOS ANGELES,90061-2302,311900.0,"Other food mfg. (including coffee, tea, flavoring, & seasonings)",8,02/01/2019,,"(33.977, -118.3335)",33.977,-118.3335
57045,0003381884-0001-0,BACH COFFEE INC,,16837 BALLINGER STREET,NORTHRIDGE,91343-2501,16837 Ballinger 91343-2501,9250 RESEDA BLVD,NORTHRIDGE,91324-3142,311900.0,"Other food mfg. (including coffee, tea, flavoring, & seasonings)",12,09/01/2023,,"(34.2441, -118.4994)",34.2441,-118.4994
57420,0002081535-0001-1,HENG YANG INC,,626 E 6TH STREET,LOS ANGELES,90021-1012,626 6TH 90021-1012,721 EL MONTE STREET,SAN GABRIEL,91776-2632,311900.0,"Other food mfg. (including coffee, tea, flavoring, & seasonings)",14,02/01/2006,,"(34.0416, -118.2441)",34.0416,-118.2441
57456,0002687787-0001-1,LORDS CAR CLUB INC,NATURE TAMED FOODS INC,11831 JUNIETTE STREET,CULVER CITY,90230-6227,11831 JUNIETTE 90230-6227,,,,311900.0,"Other food mfg. (including coffee, tea, flavoring, & seasonings)",11,03/03/2013,,"(33.9864, -118.4027)",33.9864,-118.4027
57727,0003216983-0001-0,CALLA KENNEDY,"L'MAJ BEVERLY HILLS, L'MAJ BH",2934 N BEVERLY GLEN CIRCLE   UNIT #765,LOS ANGELES,90077-1724,2934 BEVERLY GLEN 90077,,,,311900.0,"Other food mfg. (including coffee, tea, flavoring, & seasonings)",5,07/20/2019,,"(34.1273, -118.4444)",34.1273,-118.4444
57892,0002745249-0001-0,"O SAEK, INC.",,1882 W WASHINGTON BLVD,LOS ANGELES,90007-1152,1882 WASHINGTON 90007-1152,,,,311900.0,"Other food mfg. (including coffee, tea, flavoring, & seasonings)",1,01/01/2013,,"(34.0399, -118.2998)",34.0399,-118.2998
58351,0002773716-0001-1,MIA CORPORATION,CAFE MILAN,205 CULVER BLVD,PLAYA DEL REY,90293-7792,205 CULVER 90293-7792,1108 E ACACIA AVENUE,EL SEGUNDO,90245-2601,311900.0,"Other food mfg. (including coffee, tea, flavoring, & seasonings)",11,09/01/2014,,"(33.9589, -118.4483)",33.9589,-118.4483
59100,0003381818-0001-2,BOBAPAKT LLC,LOOSE LEAF BOBA COMPANY,521 S OLIVE STREET,LOS ANGELES,90013-1006,521 Olive 90013-1006,,,,311900.0,"Other food mfg. (including coffee, tea, flavoring, & seasonings)",14,07/05/2023,,"(34.0492, -118.2533)",34.0492,-118.2533
59408,0002880283-0001-1,BEANFIELDS PBC,,10401   VENICE BLVD   SUITE #106,LOS ANGELES,90034-7097,10401 VENICE 90034,,,,311900.0,"Other food mfg. (including coffee, tea, flavoring, & seasonings)",5,01/01/2015,,"(34.0206, -118.4045)",34.0206,-118.4045
59518,0003248705-0001-7,GRAND GAS MART INC.,7-ELEVEN STORE 3946B | 7-ELEVEN STORE 39646B,504 W OLYMPIC BLVD,LOS ANGELES,90015-1410,504 OLYMPIC 90015-1410,POST OFFICE BOX #219088,DALLAS,75221-9088,311900.0,"Other food mfg. (including coffee, tea, flavoring, & seasonings)",14,02/08/2021,,"(34.043, -118.2611)",34.043,-118.2611
59657,0002864611-0004-1,SOTO & SANCHEZ LAX PARTNER JV,,380 WORLD WAY SPACE #M65,LOS ANGELES,90045-5800,380 WORLD 90045-5800,13701 CIMARRON AVENUE,GARDENA,90249-2463,311900.0,"Other food mfg. (including coffee, tea, flavoring, & seasonings)",11,06/21/2023,,"(33.9435, -118.4085)",33.9435,-118.4085
59926,0002690840-0001-8,KITCHEN MOUSE LLC,,5904 N FIGUEROA STREET,LOS ANGELES,90042-4230,5904 FIGUEROA 90042-4230,,,,311900.0,"Other food mfg. (including coffee, tea, flavoring, & seasonings)",1,01/01/2013,,"(34.1105, -118.1909)",34.1105,-118.1909
60161,0002367161-0002-6,"HOJAS PREMIUM TEA HOUSE, LLC","HOJAS PREMIUM TEA, COFFEE & CAFE",222 W 6TH STREET,SAN PEDRO,90731-3316,222 6TH 90731-3316,1201 N AVALON BLVD SUITE #B,WILMINGTON,90744-2601,311900.0,"Other food mfg. (including coffee, tea, flavoring, & seasonings)",15,12/16/2014,,"(33.7387, -118.2818)",33.7387,-118.2818
60280,0003163683-0001-0,MARITZA RIVERA,NENA'S STREET CREPES,8908 S MAIN STREET,LOS ANGELES,90003-3719,8908 Main 90003-3719,8908 S MAIN STREET,LOS ANGELES,90003-3719,311900.0,"Other food mfg. (including coffee, tea, flavoring, & seasonings)",8,01/01/2020,,"(33.9553, -118.2736)",33.9553,-118.2736
60511,0000008207-0018-0,STARBUCKS CORPORATION,STARBUCKS COFFEE #21800,5857 S CENTRAL AVENUE,LOS ANGELES,90001-1127,5857 CENTRAL 90001-1127,POST OFFICE BOX #34442,SEATTLE,98124-1442,311900.0,"Other food mfg. (including coffee, tea, flavoring, & seasonings)",9,03/14/2014,,"(33.9882, -118.2564)",33.9882,-118.2564
61183,0003382560-0001-7,SCS WAFFLE INC,,6415 WILBUR AVENUE,RESEDA,91335-5973,6415 Wilbur 91335-5973,,,,311900.0,"Other food mfg. (including coffee, tea, flavoring, & seasonings)",3,05/03/2023,,"(34.1869, -118.5448)",34.1869,-118.5448
61209,0002176753-0001-1,STEVEN CONAWAY,N E CONAWAY PEANUTS,5177 S WILTON PLACE,LOS ANGELES,90062-2114,5177 WILTON 90062-2114,,,,311900.0,"Other food mfg. (including coffee, tea, flavoring, & seasonings)",8,10/01/2006,,"(33.9955, -118.315)",33.9955,-118.315
61354,0002605646-0001-8,JUAN/MARIA VELAZQUEZ,,232 E 55TH STREET,LOS ANGELES,90011-5124,232 55TH 90011-5124,,,,311900.0,"Other food mfg. (including coffee, tea, flavoring, & seasonings)",9,01/01/2010,,"(33.9924, -118.2719)",33.9924,-118.2719
61866,0002859292-0001-7,MCS CONSOLIDATED GROUP INC,PEETS COFFEE TOPANGA VILLAGE,6250 TOPANGA CANYON BLVD SUITE #1593,WOODLAND HILLS,91367-2236,6250 TOPANGA CANYON 91367-2236,,,,311900.0,"Other food mfg. (including coffee, tea, flavoring, & seasonings)",3,10/06/2015,,"(34.1838, -118.6058)",34.1838,-118.6058
62246,0003166502-0001-0,MEGAN FINLAY,SWEETS FOR THE SOUL,1305 S BEACON STREET,SAN PEDRO,90731-4327,1305 Beacon 90731-4327,,,,311900.0,"Other food mfg. (including coffee, tea, flavoring, & seasonings)",15,12/10/2019,,"(33.7322, -118.2807)",33.7322,-118.2807
64584,0002494451-0001-1,CIRO AND REGINA MICELI,SPECIALTY RESTAURANT EQUIP AND COFFEE,5846 KESTER AVENUE,VAN NUYS,91411-3013,5846 KESTER 91411-3013,,,,311900.0,"Other food mfg. (including coffee, tea, flavoring, & seasonings)",4,06/15/2009,,"(34.1765, -118.4574)",34.1765,-118.4574
64987,0003212366-0001-8,NATURE'S RARE LLC,,20058   VENTURA BLVD   UNIT #312,WOODLAND HILLS,91364-2637,20058 VENTURA 91364-2637,20058   VENTURA BLVD   UNIT #312,WOODLAND HILLS,91364-2637,311900.0,"Other food mfg. (including coffee, tea, flavoring, & seasonings)",3,10/18/2016,,"(34.171, -118.5705)",34.171,-118.5705
65120,0003145569-0001-3,UNEARTH POTIONS LLC,,14109 W SPRUCE LANE,VAN NUYS,91405-5487,14109 SPRUCE 91405,,,,311900.0,"Other food mfg. (including coffee, tea, flavoring, & seasonings)",6,08/26/2019,,"(34.2004, -118.4485)",34.2004,-118.4485
65205,0002752303-0001-1,ANGEL M. MIRAMONTES,MIKE'S TEJUINO,6239 BEAR AVENUE,BELL,90201-1101,6239 BEAR 90201-1101,,,,311900.0,"Other food mfg. (including coffee, tea, flavoring, & seasonings)",0,05/06/2014,,"(33.9814, -118.1969)",33.9814,-118.1969
65800,0003041090-0001-8,FARM CUP COFFEE LLC,,10250 CONSTELLATION BLVD SUITE #175,LOS ANGELES,90067-6216,10250 CONSTELLATION 90067-6216,10250 CONSTELLATION BLVD SUITE #175,LOS ANGELES,90067-6216,311900.0,"Other food mfg. (including coffee, tea, flavoring, & seasonings)",5,06/13/2017,,"(34.0571, -118.4174)",34.0571,-118.4174
65871,0003303531-0001-7,2ND ROUND LLC,PAUSE COFFEE,5870 MELROSE AVENUE    #6,LOS ANGELES,90038-3700,5870 MELROSE 90038-3700,,,,311900.0,"Other food mfg. (including coffee, tea, flavoring, & seasonings)",5,03/15/2022,,"(34.0832, -118.3285)",34.0832,-118.3285
65886,0003213169-0001-2,MILLER BUTLER LLC,,386 W 15TH STREET   APT,SAN PEDRO,90731-4868,386 15TH 90731,386 W 15TH STREET   APT,SAN PEDRO,90731-4868,311900.0,"Other food mfg. (including coffee, tea, flavoring, & seasonings)",15,05/13/2020,,"(33.7308, -118.2856)",33.7308,-118.2856
67316,0002376311-0001-5,D & B FOODS INC,,9821 CALIFORNIA AVENUE,SOUTH GATE,90280-4611,9821 CALIFORNIA 90280-4611,,,,311900.0,"Other food mfg. (including coffee, tea, flavoring, & seasonings)",0,12/22/1997,,"(33.945, -118.2074)",33.945,-118.2074
67372,0003249185-0001-4,ANTOJITOS CENTROAMERICANOS,,5821 S FIGUEROA STREET,LOS ANGELES,90003-1061,5821 FIGUEROA 90003,,,,311900.0,"Other food mfg. (including coffee, tea, flavoring, & seasonings)",9,10/01/2020,,"(33.9888, -118.2831)",33.9888,-118.2831
67532,0002453886-0001-5,HEATHER HEE JUNG HWANG,CAFE 100,10100 SANTA MONICA BLVD UNIT #A105,CENTURY CITY,90067-4129,10100 SANTA MONICA 90067-4129,,,,311900.0,"Other food mfg. (including coffee, tea, flavoring, & seasonings)",5,07/23/2009,,"(34.0622, -118.4166)",34.0622,-118.4166
67618,0003211630-0001-7,BAD OBSESSION INC.,LITTLE DAMAGE,700 S SPRING STREET,LOS ANGELES,90014-2906,700 Spring 90014-2906,7190 W SUNSET BLVD SUITE #57A,LOS ANGELES,90046-4415,311900.0,"Other food mfg. (including coffee, tea, flavoring, & seasonings)",14,09/01/2020,,"(34.0442, -118.2522)",34.0442,-118.2522
68014,0002605553-0001-0,HEPPS SPICE CO,,1908   MATHEWS AVENUE   #3,REDONDO BEACH,90278-2946,1908 MATHEWS 90278-2946,,,,311900.0,"Other food mfg. (including coffee, tea, flavoring, & seasonings)",0,01/01/2011,,"(33.8735, -118.3792)",33.8735,-118.3792
68532,0003381897-0001-7,SAMUEL CAMARILLO VELEZ & KAREN VIANNEY HERRERA-LOZADA,LA FAMOSA BIRRERIA AZTECA,626 LEAGUE AVENUE,LA PUENTE,91744-2446,626 League 91744-2446,,,,311900.0,"Other food mfg. (including coffee, tea, flavoring, & seasonings)",0,07/05/2023,,"(34.0434, -117.9704)",34.0434,-117.9704
68585,0003212584-0001-2,SUGARFINA USA LLC,,6600 TOPANGA CYN    #2070,CANOGA PARK,91303-2692,6600 TOPANGA CYN 91303-2692,1700 E WALNUT AVENUE FLOOR #5,EL SEGUNDO,90245-2610,311900.0,"Other food mfg. (including coffee, tea, flavoring, & seasonings)",3,09/22/2020,,"(34.1914, -118.6039)",34.1914,-118.6039
69585,0003381616-0001-7,ITSKD LLC,NACHO NACHO,231 E 12TH STREET,LOS ANGELES,90015-2532,231 12TH 90015-2532,,,,311900.0,"Other food mfg. (including coffee, tea, flavoring, & seasonings)",14,07/15/2023,,"(34.0366, -118.2576)",34.0366,-118.2576
70116,0002332742-0001-9,OTONIEL SOLARES,YUM YUM DONUTS # 27J,6804 DE SOTO AVENUE,CANOGA PARK,91303-2210,6804 DE SOTO 91303-2210,,,,311900.0,"Other food mfg. (including coffee, tea, flavoring, & seasonings)",3,04/09/2008,,"(34.1939, -118.5884)",34.1939,-118.5884
70145,0003164767-0001-6,RODAYA INC,,9774 VENA AVENUE,ARLETA,91331-4675,9774 Vena 91331-4675,,,,311900.0,"Other food mfg. (including coffee, tea, flavoring, & seasonings)",6,06/04/2018,,"(34.2484, -118.4279)",34.2484,-118.4279
70466,0003282225-0001-5,OUT OF OFFICE ROASTERS,,500 N STATE COLLEGE BLVD SUITE #1100537,ORANGE,92868-1604,500 State College 92868-1604,,,,311900.0,"Other food mfg. (including coffee, tea, flavoring, & seasonings)",0,11/11/2021,,"(33.7957, -117.8898)",33.7957,-117.8898
70471,0002601879-0001-0,LILIANA RODRIGUEZ,,2824 S WESTERN AVENUE,LOS ANGELES,90018-3032,2824 WESTERN 90018-3032,8824   ALDRICH STREET,PICO RIVERA,90660-3013,311900.0,"Other food mfg. (including coffee, tea, flavoring, & seasonings)",8,02/24/2012,,"(34.0297, -118.3089)",34.0297,-118.3089
70631,0002619523-0001-4,DOROTHY J HENDERSON,PAPA CRAIGS LOUISIANA FISH,15801 LEADWELL STREET,VAN NUYS,91406-3113,15801 LEADWELL 91406-3113,,,,311900.0,"Other food mfg. (including coffee, tea, flavoring, & seasonings)",6,06/05/2012,,"(34.2039, -118.4771)",34.2039,-118.4771
70963,0003222212-0002-8,CRUMBLE PATISSERIE INC,,6201 HOLLYWOOD BLVD UNIT #120,LOS ANGELES,90028-5363,6201 HOLLYWOOD 90028-5363,,,,311900.0,"Other food mfg. (including coffee, tea, flavoring, & seasonings)",13,11/20/2023,,"(34.1019, -118.3249)",34.1019,-118.3249
71010,0003043361-0001-1,RUBEN PAREDES / ALECCIO LEON,,4141   WHITSETT AVENUE,STUDIO CITY,91604-2424,4141 WHITSETT 91604-2424,,,,311900.0,"Other food mfg. (including coffee, tea, flavoring, & seasonings)",4,04/14/2018,,"(34.1458, -118.407)",34.1458,-118.407
71054,0003189452-0001-4,TRETO'S INC,,920 E 8TH STREET,LOS ANGELES,90021-1806,920 8TH 90021-1806,POST OFFICE BOX #3039,CHINO HILLS,91709-0102,311900.0,"Other food mfg. (including coffee, tea, flavoring, & seasonings)",14,01/15/2019,,"(34.0358, -118.2464)",34.0358,-118.2464
71535,0002457273-0001-8,SALOMON MORENO SANCHEZ,SALO'S MINI MARKET,4225 HOOPER AVENUE,LOS ANGELES,90011-3223,4225 HOOPER 90011-3223,,,,311900.0,"Other food mfg. (including coffee, tea, flavoring, & seasonings)",9,08/01/2009,,"(34.0071, -118.2521)",34.0071,-118.2521
71859,0000008207-0020-1,STARBUCKS CORPORATION,STARBUCKS COFFEE #22525,3150 WILSHIRE BLVD,LOS ANGELES,90010-1204,3150 WILSHIRE 90010-1204,POST OFFICE BOX #34442,SEATTLE,98124-1442,311900.0,"Other food mfg. (including coffee, tea, flavoring, & seasonings)",10,05/05/2014,,"(34.0617, -118.2905)",34.0617,-118.2905
72095,0002653899-0001-3,LASHCO BROTHERS LLC,MRS FIELDS  COOKIES,9301 TAMPA AVENUE #185,NORTHRIDGE,91324-2591,9301 TAMPA 91324-2591,,,,311900.0,"Other food mfg. (including coffee, tea, flavoring, & seasonings)",12,01/05/2013,,"(34.2391, -118.5535)",34.2391,-118.5535
72469,0002614059-0001-5,MI HYUN SO,,915 1/2 S VERMONT AVENUE,LOS ANGELES,90006-1609,915 VERMONT 90006-1609,,,,311900.0,"Other food mfg. (including coffee, tea, flavoring, & seasonings)",10,03/30/2012,,"(34.0554, -118.2916)",34.0554,-118.2916
73007,0003211672-0001-1,CONVOCATION COFFEE,,23700   CLARENDON STREET,WOODLAND HILLS,91367-5816,23700 CLARENDON 91367,23700   CLARENDON STREET,WOODLAND HILLS,91367-5816,311900.0,"Other food mfg. (including coffee, tea, flavoring, & seasonings)",3,08/01/2020,,"(34.1686, -118.6434)",34.1686,-118.6434
73222,0002489058-0004-5,CG YOGURT LLC,YOGURTLAND,4954 VAN NUYS BLVD #101,SHERMAN OAKS,91403-6801,4954 VAN NUYS 91403-6801,7755 HASKELL AVENUE,VAN NUYS,91406-1906,311900.0,"Other food mfg. (including coffee, tea, flavoring, & seasonings)",4,08/25/2011,,"(34.1603, -118.4487)",34.1603,-118.4487
73295,0002553501-0001-4,LAURA ANN'S JAMS,LAURA ANN'S JAMS,710   RECORD AVENUE,LOS ANGELES,90063-1752,710 RECORD 90063-1752,710   RECORD AVENUE,LOS ANGELES,90063-1752,311900.0,"Other food mfg. (including coffee, tea, flavoring, & seasonings)",0,04/01/2009,,"(34.0446, -118.1821)",34.0446,-118.1821
73606,0002266029-0001-9,WANDEE BUNLUENUCHALEE,DONUT KING,10400 VENICE BLVD,CULVER CITY,90232-3337,10400 VENICE 90232-3337,,,,311900.0,"Other food mfg. (including coffee, tea, flavoring, & seasonings)",5,07/01/2007,,"(34.0203, -118.4038)",34.0203,-118.4038
73628,0002699039-0001-5,MARIA DENO CHENOS,ORIGINAL QUEENS BURGERS,6705 FOOTHILL BLVD,TUJUNGA,91042-2708,6705 FOOTHILL 91042-2708,1616 CAMINO DE VILLAS,BURBANK,91501-1108,311900.0,"Other food mfg. (including coffee, tea, flavoring, & seasonings)",7,08/28/2013,,"(34.2471, -118.2779)",34.2471,-118.2779
73857,0000008207-0030-9,STARBUCKS CORPORATION,STARBUCKS COFFEE #20895,12106 BURBANK BLVD,VALLEY VILLAGE,91607-1709,12106 BURBANK 91607-1709,POST OFFICE BOX #34442,SEATTLE,98124-1442,311900.0,"Other food mfg. (including coffee, tea, flavoring, & seasonings)",2,03/15/2015,,"(34.1721, -118.3966)",34.1721,-118.3966
74752,0002680901-0001-0,MOJAVE FOOD CORP,,6200 E SLAUSON AVENUE,COMMERCE,90040-3012,6200 SLAUSON 90040-3012,,,,311900.0,"Other food mfg. (including coffee, tea, flavoring, & seasonings)",0,01/01/2005,,"(33.9843, -118.1492)",33.9843,-118.1492
74760,0003213312-0001-9,LOCO NUTZ,,3930   KENTUCKY DRIVE   APT #2,LOS ANGELES,90068-1240,3930 KENTUCKY 90068,3930   KENTUCKY DRIVE   APT #2,LOS ANGELES,90068-1240,311900.0,"Other food mfg. (including coffee, tea, flavoring, & seasonings)",4,10/05/2019,,"(34.1361, -118.3634)",34.1361,-118.3634
74807,0002855388-0001-0,BISCOTTI DI VECCHIO INC,,230 W AVENUE 26,LOS ANGELES,90031-1812,230 AVENUE 26 90031-1812,1049 HAVENHURST DRIVE SUITE #400,WEST HOLLYWOOD,90046-6002,311900.0,"Other food mfg. (including coffee, tea, flavoring, & seasonings)",1,08/12/2015,,"(34.0792, -118.2179)",34.0792,-118.2179
75095,0003153251-0001-1,B I O B LLC,,1001 S BROADWAY     #D,LOS ANGELES,90015-4034,1001 BROADWAY 90015-4034,,,,311900.0,"Other food mfg. (including coffee, tea, flavoring, & seasonings)",14,10/04/2019,,"(34.0408, -118.2579)",34.0408,-118.2579
75272,0002816868-0002-3,AROMAS THE ESSENCE OF COFFE & TEA INC,,13652 CANTARA STREET,PANORAMA CITY,91402-5423,13652 CANTARA 91402-5423,,,,311900.0,"Other food mfg. (including coffee, tea, flavoring, & seasonings)",6,11/01/2014,,"(34.2198, -118.4305)",34.2198,-118.4305
75855,0002349019-0001-0,PUES INC,CAFE DE LECHE,5000 YORK BLVD,LOS ANGELES,90042-1714,5000 YORK 90042-1714,,,,311900.0,"Other food mfg. (including coffee, tea, flavoring, & seasonings)",14,06/06/2008,,"(34.1214, -118.2068)",34.1214,-118.2068
75926,0003210684-0001-6,JOZEFINA KACZMAREK,FIREYFINAS HOT SAUCE,15136   STAGG STREET,VAN NUYS,91405-1025,15136 STAGG 91405,2345   ORANGE COVE AVENUE,LA CRESCENTA,91214-3042,311900.0,"Other food mfg. (including coffee, tea, flavoring, & seasonings)",6,09/07/2020,,"(34.2119, -118.4631)",34.2119,-118.4631
76233,0002911474-0001-7,TEARIOT LLC,,2207   BRENTA PLACE,VENICE,90291-3900,2207 BRENTA 90291-3900,623   VERNON AVENUE,VENICE,90291-2736,311900.0,"Other food mfg. (including coffee, tea, flavoring, & seasonings)",11,03/04/2016,,"(33.9938, -118.4545)",33.9938,-118.4545
77159,0002735247-0001-4,RENEW JUICERY LLC,RENEW JUICERY,734 LINCOLN BLVD,VENICE,90291-2802,734 LINCOLN 90291-2802,1535   D STREET,NAPA,94559-1627,311900.0,"Other food mfg. (including coffee, tea, flavoring, & seasonings)",11,03/04/2014,,"(33.9994, -118.4639)",33.9994,-118.4639
77482,0003150603-0001-2,FABIOLA DE LA HUERTA,GYM & JUICE,2999   GLENDALE BLVD,LOS ANGELES,90039-1801,2999 GLENDALE 90039-1801,,,,311900.0,"Other food mfg. (including coffee, tea, flavoring, & seasonings)",13,09/21/2019,,"(34.115, -118.2647)",34.115,-118.2647
78382,0002648853-0002-0,"CHEECH'S PIZZA, INC.",CHEECH'S PIZZA,2116 HILLHURST AVENUE,LOS ANGELES,90027-2004,2116 HILLHURST 90027-2004,,,,311900.0,"Other food mfg. (including coffee, tea, flavoring, & seasonings)",4,04/30/2014,,"(34.1104, -118.2874)",34.1104,-118.2874
78605,0002819348-0001-9,GUILLERMO RAYON RAMIREZ,IVAN'S TORTILLA DISTRIBUTOR,946 BURGER AVENUE,LOS ANGELES,90022-2901,946 BURGER 90022-2901,4650 DOZIER AVENUE,LOS ANGELES,90022-1222,311900.0,"Other food mfg. (including coffee, tea, flavoring, & seasonings)",0,03/01/2015,,"(34.0222, -118.1722)",34.0222,-118.1722
79634,0002724332-0015-2,BLUE BOTTLE COFFEE INC,,3501 W 6TH STREET SUITE #555,LOS ANGELES,90020-2811,3501 6TH 90020-2811,476 9TH STREET,OAKLAND,94607-4048,311900.0,"Other food mfg. (including coffee, tea, flavoring, & seasonings)",10,10/24/2020,,"(34.0637, -118.2983)",34.0637,-118.2983
80032,0003151922-0001-7,DREAM POPS,DREAM POPS LLC,6130   AVALON BLVD,LOS ANGELES,90003-1633,6130 AVALON 90003,1880   CENTURY PARKS  E BUILDING #200,LOS ANGELES,90067-1602,311900.0,"Other food mfg. (including coffee, tea, flavoring, & seasonings)",9,09/13/2016,,"(33.9835, -118.2642)",33.9835,-118.2642
80326,0003211865-0001-7,STARBUCKS CORPORATION,STARBUCKS COFFEE #57613,11401   SANTA MONICA BLVD,LOS ANGELES,90025-3009,11401 SANTA MONICA 90025,POST OFFICE BOX #34442,SEATTLE,98124-1442,311900.0,"Other food mfg. (including coffee, tea, flavoring, & seasonings)",11,09/30/2020,,"(34.0458, -118.4512)",34.0458,-118.4512
80594,0003098594-0001-0,KEVIN MOORE,,26500   AGOURA ROAD   SUITE #102-828,CALABASAS,91302-3571,26500 AGOURA 91302-3571,,,,311900.0,"Other food mfg. (including coffee, tea, flavoring, & seasonings)",0,01/01/2019,,"(34.1435, -118.6994)",34.1435,-118.6994
80636,0000363709-0002-1,CARLOS A MIER,MIER'S ICE CREAM,7816 CLYBOURN AVENUE,SUN VALLEY,91352-4626,7816 CLYBOURN 91352-4626,,,,311900.0,"Other food mfg. (including coffee, tea, flavoring, & seasonings)",2,06/01/2006,,"(34.2125, -118.3638)",34.2125,-118.3638
80659,0002706061-0001-6,DAVID SARUKHANYAN,DIAMOND WATER,10804 VINEDALE STREET,SUN VALLEY,91352-2845,10804 VINEDALE 91352-2845,,,,311900.0,"Other food mfg. (including coffee, tea, flavoring, & seasonings)",6,11/01/2013,,"(34.2287, -118.3655)",34.2287,-118.3655
80709,0003382086-0001-1,RAYMUNDO CAMACHO,,2205 E 105TH STREET,LOS ANGELES,90002-3824,2205 105th 90002-3824,,,,311900.0,"Other food mfg. (including coffee, tea, flavoring, & seasonings)",15,06/25/2023,,"(33.9408, -118.2325)",33.9408,-118.2325
80795,0003033329-0001-6,JOHN REYNOSO,,790 CERES AVENUE,LOS ANGELES,90021-0021,790 CERES 90021-0021,,,,311900.0,"Other food mfg. (including coffee, tea, flavoring, & seasonings)",14,02/14/2018,,"(34.0356, -118.245)",34.0356,-118.245
80949,0002367161-0001-8,"HOJAS PREMIUM TEA HOUSE, LLC","HOJAS PREMIUM TEA,COFFEE & CAFE",1201 N AVALON BLVD   SUITE #B,WILMINGTON,90744-2601,1201 AVALON 90744-2601,,,,311900.0,"Other food mfg. (including coffee, tea, flavoring, & seasonings)",15,08/06/2008,,"(33.787, -118.2634)",33.787,-118.2634
81906,0003250491-0001-5,ATABEY COFFEE ROASTERS,,3450   SAWTELLE BLVD   APT #341,LOS ANGELES,90066-2170,3450 SAWTELLE 90066,3450   SAWTELLE BLVD   APT #341,LOS ANGELES,90066-2170,311900.0,"Other food mfg. (including coffee, tea, flavoring, & seasonings)",11,04/19/2021,,"(34.0179, -118.424)",34.0179,-118.424
82013,0000085217-0002-6,NICOLAS G PINEDA,GALINDO MINI MARKET,6720 S CENTRAL AVENUE,LOS ANGELES,90001-1644,6720 CENTRAL 90001-1644,,,,311900.0,"Other food mfg. (including coffee, tea, flavoring, & seasonings)",9,11/29/2009,,"(33.979, -118.2564)",33.979,-118.2564
82126,0002572842-0001-3,NYSO INC,NESMON,13333 VENTURA BLVD SUITE #100,SHERMAN OAKS,91423-6220,13333 VENTURA 91423-6220,13351 D RIVERSIDE DRIVE UNIT #342,SHERMAN OAKS,91423-2508,311900.0,"Other food mfg. (including coffee, tea, flavoring, & seasonings)",4,08/08/2011,,"(34.1467, -118.4236)",34.1467,-118.4236
82597,0002704612-0001-7,KARLOS ZOHRABYAN,KZ DISTRIBUTION,809 E CHESTNUT STREET #5,GLENDALE,91205-4230,809 CHESTNUT 91205-4230,,,,311900.0,"Other food mfg. (including coffee, tea, flavoring, & seasonings)",0,08/07/2013,,"(34.1399, -118.245)",34.1399,-118.245
83268,0002584023-0001-6,SATURNINO THOMAS DAVILA / MARTIN GALICIA,THE TOWN CAFE,8722 SUNLAND BLVD,SUN VALLEY,91352-2838,8722 SUNLAND 91352-2838,,,,311900.0,"Other food mfg. (including coffee, tea, flavoring, & seasonings)",6,11/01/2011,,"(34.2277, -118.3661)",34.2277,-118.3661
84038,0002742957-0004-4,FC JUICE PARTNERS CALIFORNIA LLC,JAMBA JUICE #10,14622 VENTURA BLVD SUITE #106,SHERMAN OAKS,91403-3662,14622 VENTURA 91403-3662,650 S MAIN STREET,LAS VEGAS,89101-6421,311900.0,"Other food mfg. (including coffee, tea, flavoring, & seasonings)",4,04/01/2014,,"(34.1514, -118.4519)",34.1514,-118.4519
84293,0002773721-0001-1,BLODE KUH LLC,BLODE KUH,26961  1/2 TANNAHILL AVENUE,SANTA CLARITA,91387-3946,26961 TANNAHILL 91387-3946,26961 1/2   TANNAHILL AVENUE,SANTA CLARITA,91387-3924,311900.0,"Other food mfg. (including coffee, tea, flavoring, & seasonings)",0,09/09/2014,,"(34.399, -118.4196)",34.399,-118.4196
84788,0000008207-0039-2,STARBUCKS CORPORATION,STARBUCKS COFFEE #26338,1401 S ALAMEDA STREET,LOS ANGELES,90021-2425,1401 ALAMEDA 90021-2425,POST OFFICE BOX #34442,SEATTLE,98124-1442,311900.0,"Other food mfg. (including coffee, tea, flavoring, & seasonings)",14,05/14/2016,,"(34.0253, -118.2395)",34.0253,-118.2395
85331,0002566407-0001-1,BOBA BEAR LLC,,414 S WESTERN AVENUE #C,LOS ANGELES,90020-4191,414 WESTERN 90020-4191,,,,311900.0,"Other food mfg. (including coffee, tea, flavoring, & seasonings)",10,10/01/2010,,"(34.0668, -118.3091)",34.0668,-118.3091
86378,0002700083-0001-9,BRIZA SERVICES INC,PARADICE ITALIAN ICE,855 E EASY STREET SUITE #101,SIMI VALLEY,93065-1825,855 EASY 93065-1825,,,,311900.0,"Other food mfg. (including coffee, tea, flavoring, & seasonings)",0,05/28/2013,,"(34.2736, -118.7818)",34.2736,-118.7818
86399,0003087082-0001-2,WILBERT KELLEY JR,HSTUDIOSLA,4905 S WESTERN AVENUE,LOS ANGELES,90062-2327,4905 WESTERN 90062-2327,,,,311900.0,"Other food mfg. (including coffee, tea, flavoring, & seasonings)",8,11/30/2018,,"(33.9989, -118.309)",33.9989,-118.309
86801,0002569703-0013-3,NAGATANIEN RS FOODS LLC,,2725 HYPERION AVENUE,LOS ANGELES,90027-3001,2725 HYPERION 90027-3001,825 BALDWIN PARK BLVD,CITY OF INDUSTRY,91746-1205,311900.0,"Other food mfg. (including coffee, tea, flavoring, & seasonings)",4,07/11/2011,,"(34.107, -118.2722)",34.107,-118.2722
87430,0003203482-0002-4,THE HUB FOOD MANAGEMENT INC,PITA INN,9525   COZYCROFT AVENUE   SUITE #G,CHATSWORTH,91311-0706,9525 COZYCROFT  91311-5120,21151 S WESTERN AVENUE   SUITE #284,TORRANCE,90501-1724,311900.0,"Other food mfg. (including coffee, tea, flavoring, & seasonings)",12,04/29/2021,,"(34.2435, -118.5826)",34.2435,-118.5826
88378,0002992317-0001-9,"MOODFIX WELLNESS, INC.",SA MEDIA SERVICES,4311   COLFAX AVENUE,STUDIO CITY,91604-2834,4311 COLFAX 91604-2834,4311   COLFAX AVENUE   UNIT #225,STUDIO CITY,91604-2843,311900.0,"Other food mfg. (including coffee, tea, flavoring, & seasonings)",4,05/23/2017,,"(34.1478, -118.3883)",34.1478,-118.3883
88446,0003175458-0001-6,AMERICAN LIVING LIFE INC,,1122 W 6TH STREET UNIT #2528,LOS ANGELES,90017-5061,1122 6th 90017-5061,,,,311900.0,"Other food mfg. (including coffee, tea, flavoring, & seasonings)",1,01/02/2020,,"(34.0541, -118.2626)",34.0541,-118.2626
88550,0002754764-0001-4,MARCELA ROGEL VAZQUEZ,,10840 KALMIA STREET,LOS ANGELES,90059-1330,10840 KALMIA 90059-1330,,,,311900.0,"Other food mfg. (including coffee, tea, flavoring, & seasonings)",15,06/04/2014,,"(33.9366, -118.2323)",33.9366,-118.2323
90865,0003368246-0001-3,AZAZIE INC,,445 S FIGUEROA STREET SUITE #2920,LOS ANGELES,90071-1633,445 FIGUEROA 90071,100 CENTURY CENTER COURT SUITE #330,SAN JOSE,95112-4512,311900.0,"Other food mfg. (including coffee, tea, flavoring, & seasonings)",14,05/15/2014,,"(34.0532, 34.0532)",34.0532,34.0532
91618,0002906501-0001-6,ESPRESSO PROFETA LLC,ESPRESSO PROFETA,1129   GLENDON AVENUE,LOS ANGELES,90024-3501,1129 GLENDON 90024-3501,,,,311900.0,"Other food mfg. (including coffee, tea, flavoring, & seasonings)",5,03/01/2016,,"(34.0602, -118.4442)",34.0602,-118.4442
91816,0002687475-0001-3,BRAND NEW LLC,,3035 S FLOWER STREET,LOS ANGELES,90007-3725,3035 FLOWER 90007-3725,8117 W MANCHESTER AVENUE SUITE #380,PLAYA DEL REY,90293-8211,311900.0,"Other food mfg. (including coffee, tea, flavoring, & seasonings)",9,05/01/2013,,"(34.0241, -118.2769)",34.0241,-118.2769
91909,0003228133-0001-7,DAVID SILBURN / DANIELLE SIERRAS,D & D ONESTOP MINI MART,2604 W 54TH STREET,LOS ANGELES,90043-2615,2604 54TH,2604 W 54TH STREET,LOS ANGELES,90043-2615,311900.0,"Other food mfg. (including coffee, tea, flavoring, & seasonings)",8,01/04/2021,,"(33.9929, -118.3218)",33.9929,-118.3218
92037,0002700429-0001-7,LAKEVIEW FARMS INC,,1600 GRESSEL DRIVE,DELPHOS,45833-9153,1600 GRESSEL 45833-9153,POST OFFICE BOX #98,DELPHOS,45833-0098,311900.0,"Other food mfg. (including coffee, tea, flavoring, & seasonings)",0,04/01/2013,,"(40.8537, -84.3225)",40.8537,-84.3225
92105,0003282941-0001-1,BOBA SUN VALLEY INC,BOBA SNOW HOUSE,8359 LAUREL CANYON BLVD,SUN VALLEY,91352-3809,8359 LAUREL CANYON 91352-3809,10140 LASAINE AVENUE,NORTHRIDGE,91325-1510,311900.0,"Other food mfg. (including coffee, tea, flavoring, & seasonings)",6,04/02/2022,,"(34.2228, -118.3966)",34.2228,-118.3966
92340,0003156521-0001-6,JUDY L ATKINS,,52180 AVENIDA MONTEZUMA,LA QUINTA,92253-3214,52180 Avenida Montezuma 92253-3214,POST OFFICE BOX #5041,LA QUINTA,92248-5041,311900.0,"Other food mfg. (including coffee, tea, flavoring, & seasonings)",14,10/19/2019,,"(33.6694, -116.3188)",33.6694,-116.3188
92871,0003156328-0001-1,ENROOT ORGANICS PBC,,5299 W WASHINGTON BLVD   UNIT #B,LOS ANGELES,90016-1340,5299 WASHINGTON 90016,5299 W WASHINGTON BLVD   UNIT #B,LOS ANGELES,90016-1340,311900.0,"Other food mfg. (including coffee, tea, flavoring, & seasonings)",10,04/15/2019,,"(34.0409, -118.3575)",34.0409,-118.3575
93190,0003119245-0001-3,EARTH RX,,3833 DUNN DRIVE APT #507,CULVER CITY,90232-2974,3833 DUNN 90232-2974,,,,311900.0,"Other food mfg. (including coffee, tea, flavoring, & seasonings)",5,03/29/2019,,"(34.022, -118.3991)",34.022,-118.3991
93520,0003401520-0001-0,BEANY LLC,,8358 MANITOBA STREET APT #6,PLAYA DEL REY,90293-8770,8358 MANITOBA 90293-8770,,,,311900.0,"Other food mfg. (including coffee, tea, flavoring, & seasonings)",11,12/30/2021,,"(33.9538, -118.4401)",33.9538,-118.4401
93595,0002498888-0001-6,TEAM MAKENA LLC,TEAM MAKENA,6801 PARK TERRACE SUITE #110,LOS ANGELES,90045-1544,6801 PARK 90045-1544,27051 TOWNE CENTRE DRIVE SUITE #180,FOOTHILL RANCH,92610-2819,311900.0,"Other food mfg. (including coffee, tea, flavoring, & seasonings)",11,04/01/2010,,"(33.9778, -118.3927)",33.9778,-118.3927
93603,0002315380-0002-9,MICAH ROBERTS,MYKA HEKA,3713 S VAN NESS AVENUE,LOS ANGELES,90018-4357,3713 VAN NESS 90018-4357,,,,311900.0,"Other food mfg. (including coffee, tea, flavoring, & seasonings)",8,12/21/2010,,"(34.0206, -118.3166)",34.0206,-118.3166
93640,0002973753-0001-2,VIKKI REYES / JEANENE CONLEY,TACO BAR,5815 W PICO BLVD,LOS ANGELES,90019-3714,5815 PICO 90019-3714,POST OFFICE BOX #351777,LOS ANGELES,90035-8828,311900.0,"Other food mfg. (including coffee, tea, flavoring, & seasonings)",10,03/13/2017,,"(34.0513, -118.365)",34.0513,-118.365
93799,0002805305-0001-5,"NIKKIMOMO, LLC",,4859 W SLAUSON AVENUE #160,LOS ANGELES,90056-1290,4859 SLAUSON 90056-1290,,,,311900.0,"Other food mfg. (including coffee, tea, flavoring, & seasonings)",0,02/01/2015,,"(33.9876, -118.3623)",33.9876,-118.3623
94652,0002336322-0001-8,MARICRUZ B CASTANON,GUERRERO IMPORTS,14542 FALCO AVENUE,NORWALK,90650-5016,14542 FALCO 90650-5016,,,,311900.0,"Other food mfg. (including coffee, tea, flavoring, & seasonings)",0,01/01/2005,,"(33.8992, -118.0675)",33.8992,-118.0675
95128,0003234826-0001-1,CASA ALQUIMISTA LLC,CASA ALQUIMISTA,11829   JEFFERSON BLVD,CULVER CITY,90230-6309,11829 JEFFERSON 90230,11829   JEFFERSON BLVD,CULVER CITY,90230-6309,311900.0,"Other food mfg. (including coffee, tea, flavoring, & seasonings)",11,02/02/2021,,"(33.986, -118.4023)",33.986,-118.4023
95176,0003230872-0001-2,"KING PROVISIONS, INC",KING-PAK FOOD SERVICES,4353 EXCHANGE AVENUE,VERNON,90058-2619,4353 EXCHANGE 90058-2619,,,,311900.0,"Other food mfg. (including coffee, tea, flavoring, & seasonings)",0,01/01/2013,,"(34.0027, -118.1999)",34.0027,-118.1999
96136,0002864433-0001-6,TITO E CALDERON/ RIGOBERTO E CALDERON,BROTHER'S DAIRIES,227 E 111TH STREET,LOS ANGELES,90061-2533,227 111TH 90061-2533,,,,311900.0,"Other food mfg. (including coffee, tea, flavoring, & seasonings)",8,10/29/2015,,"(33.9347, -118.2711)",33.9347,-118.2711
96403,0003384700-0001-6,ELYSIAN PROVISIONS LLC,,242 N AVENUE 25 UNIT #245,LOS ANGELES,90031-1986,242 AVENUE 25 90031-1986,,,,311900.0,"Other food mfg. (including coffee, tea, flavoring, & seasonings)",1,08/04/2023,,"(34.0787, -118.2183)",34.0787,-118.2183
97140,0000317128-0002-2,STARBUCKS CORPORATION,STARBUCKS COFFEE #59109,5307 W CENTURY BLVD,LOS ANGELES,90045-5909,5307 Century 90045-5909,POST OFFICE BOX #34442STAX2,SEATTLE,98124,311900.0,"Other food mfg. (including coffee, tea, flavoring, & seasonings)",11,04/04/2022,,"(33.9456, -118.3733)",33.9456,-118.3733
97417,0003231002-0001-9,NUTRIWING LLC,,6130 AVALON BLVD UNIT #209,LOS ANGELES,90003-1633,6130 AVALON 90003-1633,10600   WILSHIRE BLVD   APT #303,LOS ANGELES,90024-4555,311900.0,"Other food mfg. (including coffee, tea, flavoring, & seasonings)",9,01/02/2021,,"(33.9835, -118.2642)",33.9835,-118.2642
97519,0000832488-0037-5,LITTLE CAESARS ENTERPRISES INC,LITTLE CAESARS 5763,1601 E 103RD STREET   SUITE #8,LOS ANGELES,90002-3900,1601 103RD 90002-3900,2125 WOODWARD AVENUE,DETROIT,48201-3469,311900.0,"Other food mfg. (including coffee, tea, flavoring, & seasonings)",15,04/23/2016,,"(33.9438, -118.2455)",33.9438,-118.2455
98199,0002811789-0001-2,NEW CARBON COMPANY LLC,CARBON'S GOLDEN MALTED,4101 WILLIAM RICHARDSON DRIVE,SOUTH BEND,46628-9485,4101 WILLIAM RICHARDSON 46628-9485,POST OFFICE BOX #129,CONCORDVILLE,19331-0128,311900.0,"Other food mfg. (including coffee, tea, flavoring, & seasonings)",0,01/01/2014,,"(41.7324, -86.3067)",41.7324,-86.3067
98512,0003379890-0001-7,BEST COFFEE CULVER CITY LLC,MAD LAB CULVER CITY,11955 CULVER BLVD,LOS ANGELES,90066-5546,11955 Culver 90066-5546,1469 TAMARIND AVENUE,LOS ANGELES,90028-8412,311900.0,"Other food mfg. (including coffee, tea, flavoring, & seasonings)",11,06/20/2023,,"(33.9958, -118.4175)",33.9958,-118.4175
98653,0002654129-0001-8,"UAM GROUP, LLC",POTATO CORNER,9301   TAMPA AVENUE      #K5519,NORTHRIDGE,91324-2503,9301 TAMPA 91324,20412   VIA MANTUA,PORTER RANCH,91326-4440,311900.0,"Other food mfg. (including coffee, tea, flavoring, & seasonings)",12,01/10/2013,,"(34.24, -118.5545)",34.24,-118.5545
98768,0003313717-0001-0,ANA I MORALES GONZALEZ,,1812  1/2 S BERENDO STREET,LOS ANGELES,90006-4415,1812 Berendo 90006-4415,,,,311900.0,"Other food mfg. (including coffee, tea, flavoring, & seasonings)",1,05/01/2021,,"(34.0413, -118.2932)",34.0413,-118.2932
98797,0003325174-0002-8,PFV UTC LLC,UNCLE TETSU #31011,2130 SAWTELLE BLVD,WEST LOS ANGELES,90025-6250,2130 Sawtelle 90025-6250,1683 WALNUT GROVE AVENUE,ROSEMEAD,91770-3711,311900.0,"Other food mfg. (including coffee, tea, flavoring, & seasonings)",11,09/01/2023,,"(34.0392, -118.4417)",34.0392,-118.4417
98857,0002680103-0001-3,FOODIE FRIDAYS LLC,KONA ICE NORTH VALLEY LA,18543 DEVONSHIRE STREET UNIT #222,NORTHRIDGE,91324-1308,18543 DEVONSHIRE 91324-1308,,,,311900.0,"Other food mfg. (including coffee, tea, flavoring, & seasonings)",12,05/07/2013,,"(34.2572, -118.5371)",34.2572,-118.5371
98975,0003218190-0001-9,JOY'S CHICKEN INC,,4166 S BROADWAY,LOS ANGELES,90037-2237,4166 Broadway 90037-2237,,,,311900.0,"Other food mfg. (including coffee, tea, flavoring, & seasonings)",9,01/29/2020,,"(34.0079, -118.2782)",34.0079,-118.2782
99468,0003231354-0001-1,MARIA SUAR  SUAR AND DOMINGO LOPEZ AJAMEL,ANTOJITOS CHA[PNES CHICHICASTECA,363  1/2 E GAGE AVENUE,LOS ANGELES,90003-1646,363 GAGE 90003-1646,,,,311900.0,"Other food mfg. (including coffee, tea, flavoring, & seasonings)",9,01/12/2021,,"(33.9827, -118.2674)",33.9827,-118.2674
99797,0003403665-0001-0,JENNA ROBERT,EARLEY GREY TEAROOM,210 W 5TH STREET,LOS ANGELES,90013-2004,210 5th 90013-2004,,,,311900.0,"Other food mfg. (including coffee, tea, flavoring, & seasonings)",14,12/11/2023,,"(34.0474, -118.2501)",34.0474,-118.2501
100422,0002682967-0001-3,GANELL DORSEY,,4872 TOPANGA CANYON BLVD UNIT #104,WOODLAND HILLS,91364-4229,4872 TOPANGA CANYON 91364-4229,4872 TOPANGA CANYON BLVD UNIT #104,WOODLAND HILLS,91364-4229,311900.0,"Other food mfg. (including coffee, tea, flavoring, & seasonings)",3,05/20/2013,,"(34.1563, -118.6058)",34.1563,-118.6058
100701,0002646778-0001-9,JAPADOG INC,JAPADOG,1150 S OLIVE STREET UNIT #9-124,LOS ANGELES,90015-2847,1150 OLIVE 90015-2847,,,,311900.0,"Other food mfg. (including coffee, tea, flavoring, & seasonings)",14,11/19/2012,,"(34.0395, -118.2614)",34.0395,-118.2614
100721,0000833980-0003-2,SONGKHENG SANG,DONUT HOUSE,2294 FIRESTONE BLVD,LOS ANGELES,90002-1546,2294 FIRESTONE 90002-1546,,,,311900.0,"Other food mfg. (including coffee, tea, flavoring, & seasonings)",0,01/01/2013,,"(33.9576, -118.2309)",33.9576,-118.2309
100951,0003217487-0001-4,MICHE LA NALGONA,,1915 VASSAR STREET UNIT #117,GLENDALE,91204-2975,1915 Vassar 91204-2975,,,,311900.0,"Other food mfg. (including coffee, tea, flavoring, & seasonings)",0,01/02/2021,,"(34.1207, -118.2539)",34.1207,-118.2539
101075,0002669719-0001-6,RISING MOON ENTERPRISES INC,URBAN PET SILVERLAKE,4475 SANTA MONICA BLVD,LOS ANGELES,90029-2036,4475 SANTA MONICA 90029-2036,,,,311900.0,"Other food mfg. (including coffee, tea, flavoring, & seasonings)",13,01/01/2013,,"(34.0908, -118.286)",34.0908,-118.286
101242,0003283598-0001-6,DEAN DAIRY FLUID LLC,,17637 E VALLEY BLVD,CITY OF INDUSTRY,91744-5731,17637 Valley 91744-5731,17637 E VALLEY BLVD,CITY OF INDUSTRY,91744-5731,311900.0,"Other food mfg. (including coffee, tea, flavoring, & seasonings)",0,05/01/2020,,"(34.0098, -117.9185)",34.0098,-117.9185
101383,0002731269-0001-1,BROADWAY CAFE INC,,331 S BROADWAY,LOS ANGELES,90013-1207,331 BROADWAY 90013-1207,600 E WASHINGTON BLVD #217,LOS ANGELES,90015-3769,311900.0,"Other food mfg. (including coffee, tea, flavoring, & seasonings)",14,02/19/2014,,"(34.0505, -118.2483)",34.0505,-118.2483
101691,0003181990-0001-2,RICARDO VALLE GARCIA,COFFEE WORLD,10409   LAS LUNITAS AVENUE,TUJUNGA,91042-1840,10409 LAS LUNITAS 91042-1840,,,,311900.0,"Other food mfg. (including coffee, tea, flavoring, & seasonings)",7,03/01/2020,,"(34.2581, -118.2914)",34.2581,-118.2914
101737,0003380814-0001-7,VANESSA SHAKUR,LOADED TEA JUNKIEZ,316 1/2 E 79TH STREET,LOS ANGELES,90003-2620,316 79th 90003-2620,,,,311900.0,"Other food mfg. (including coffee, tea, flavoring, & seasonings)",9,06/01/2023,,"(33.9671, -118.2689)",33.9671,-118.2689
101807,0003080617-0001-8,UNITED GLOBAL COFFEE SOLUTIONS INC,COFFEE MACHINE DEPOT USA,5256 W WASHINGTON BLVD,LOS ANGELES,90016-1309,5256 WASHINGTON 90016-1309,,,,311900.0,"Other food mfg. (including coffee, tea, flavoring, & seasonings)",10,03/17/2017,,"(34.041, -118.3559)",34.041,-118.3559
102424,0003126395-0001-4,MARIA JOSE ESPINOZA CARVAJAL,EL MUNDO MAJICO DE ANIS,16057 SHERMAN WAY APT #362,VAN NUYS,91406-4023,16057 SHERMAN 91406-4023,,,,311900.0,"Other food mfg. (including coffee, tea, flavoring, & seasonings)",6,05/17/2019,,"(34.2015, -118.4833)",34.2015,-118.4833
103372,0003100240-0002-7,CAFEFIKA INTERNATIONAL US LLC,THE BOY & THE BEAR - COFFEE ROASTERY,7403 LA TIJERA BLVD    #136,LOS ANGELES,90045-2493,7403 La Tijera 90045-2493,,,,311900.0,"Other food mfg. (including coffee, tea, flavoring, & seasonings)",11,12/26/2019,,"(33.9611, -118.3934)",33.9611,-118.3934
103427,0003171565-0001-5,FLOAT COFFEE SHOP INC,FLOAT COFFEE SHOP,1635 VINE STREET,LOS ANGELES,90028-8802,1635 Vine 90028-8802,500 IVY STREET UNIT #5,GLENDALE,91204-1244,311900.0,"Other food mfg. (including coffee, tea, flavoring, & seasonings)",13,01/07/2020,,"(34.1009, -118.3268)",34.1009,-118.3268
103768,0002455129-0001-4,LARRY MOHAMMAD,LA FAJA HONEY PUNCH,5351 7TH AVENUE,LOS ANGELES,90043-4805,5351 7TH 90043-4805,,,,311900.0,"Other food mfg. (including coffee, tea, flavoring, & seasonings)",8,07/29/2009,,"(33.9936, -118.3246)",33.9936,-118.3246
103873,0003100240-0001-9,CAFEFIKA INTERNATIONAL US LLC,THE BOY & THE BEAR - COFFEE ROASTERY,12712 W WASHINGTON BLVD,LOS ANGELES,90066-2341,12712 WASHINGTON 90066-2341,350 N PACIFIC COAST HIGHWAY,REDONDO BEACH,90277-2837,311900.0,"Other food mfg. (including coffee, tea, flavoring, & seasonings)",0,02/05/2018,,"(33.9966, -118.435)",33.9966,-118.435
104730,0003065536-0002-4,JJJ SUBS LLC,JERSEY MIKE SUBS 20346,3452 WILSHIRE BLVD,LOS ANGELES,90010-2204,3452 Wilshire 90010-2204,7220 WINDSOR DRIVE,ALLENTOWN,18106-9318,311900.0,"Other food mfg. (including coffee, tea, flavoring, & seasonings)",10,10/06/2021,,"(34.0616, -118.2994)",34.0616,-118.2994
104768,0003216182-0001-0,VICTORIA RAU,LEONA,1920   HILLHURST AVENUE   SUITE #247,LOS ANGELES,90027-2712,1920 HILLHURST 90027,1920   HILLHURST AVENUE   SUITE #247,LOS ANGELES,90027-2712,311900.0,"Other food mfg. (including coffee, tea, flavoring, & seasonings)",4,10/27/2020,,"(34.106, -118.2871)",34.106,-118.2871
104850,0003212584-0002-1,SUGARFINA USA LLC,,14006 RIVERSIDE DRIVE SUITE #206,SHERMAN OAKS,91423-6345,14006 RIVERSIDE 91423-6345,1700 E WALNUT AVENUE FLOOR #5,EL SEGUNDO,90245-2610,311900.0,"Other food mfg. (including coffee, tea, flavoring, & seasonings)",4,09/22/2020,,"(34.157, -118.4353)",34.157,-118.4353
105396,0003172990-0001-3,MITAKASA INC,,1326 W PARK WESTERN DRIVE UNIT #201,SAN PEDRO,90732-5012,1326 Park Western 90732-5012,,,,311900.0,"Other food mfg. (including coffee, tea, flavoring, & seasonings)",15,02/03/2016,,"(33.7537, -118.3066)",33.7537,-118.3066
105661,0002949273-0001-3,U STAR CAFE CORP,U BYUL,1109 E 12TH STREET,LOS ANGELES,90021-2205,1109 12TH 90021-2205,,,,311900.0,"Other food mfg. (including coffee, tea, flavoring, & seasonings)",14,01/02/2017,,"(34.0313, -118.2473)",34.0313,-118.2473
105737,0002611021-0001-6,KAREN MADINYAN,COFFEE LAND,7561 LANKERSHIM BLVD UNIT #109,NORTH HOLLYWOOD,91605-2805,7561 LANKERSHIM 91605-2805,,,,311900.0,"Other food mfg. (including coffee, tea, flavoring, & seasonings)",2,04/13/2012,,"(34.2077, -118.3877)",34.2077,-118.3877
105844,0003148085-0001-3,OSCAR DONALDO HERNANDEZ SALES,,703   ISLAND AVENUE,WILMINGTON,90744-5414,703 ISLAND 90744,703   ISLAND AVENUE,WILMINGTON,90744-5414,311900.0,"Other food mfg. (including coffee, tea, flavoring, & seasonings)",15,12/01/2019,,"(33.7786, -118.2664)",33.7786,-118.2664
105860,0002575818-0001-1,SHAMROCK FOODS COMPANY,,12400 RIVERSIDE DRIVE,EASTVALE,91752-1004,12400 RIVERSIDE 91752-1004,2540 N 29TH AVENUE,PHOENIX,85009-1612,311900.0,"Other food mfg. (including coffee, tea, flavoring, & seasonings)",0,09/01/2011,,"(34.0188, -117.5533)",34.0188,-117.5533
107540,0003304786-0001-1,PRANA HERBS LLC,,7106 LASAINE AVENUE,VAN NUYS,91406-3546,7106 Lasaine 91406-3546,,,,311900.0,"Other food mfg. (including coffee, tea, flavoring, & seasonings)",6,10/05/2021,,"(34.1995, -118.5108)",34.1995,-118.5108
107608,0002609626-0001-0,DKU ENTERPRISES INC,,625 1/2 N SPAULDING AVENUE,LOS ANGELES,90036-1864,625 SPAULDING 90036-1864,,,,311900.0,"Other food mfg. (including coffee, tea, flavoring, & seasonings)",5,04/23/2012,,"(34.0825, -118.3573)",34.0825,-118.3573
107830,0003167625-0001-6,VARDIEN D ISSA,BRAZIL OUTLET SUPERSTORE,1551 N VERMONT AVENUE,LOS ANGELES,90027-5360,1551 VERMONT 90027-5360,10051 ROSCOE BLVD,SUN VALLEY,91352-3634,311900.0,"Other food mfg. (including coffee, tea, flavoring, & seasonings)",13,01/02/2020,,"(34.0995, -118.2919)",34.0995,-118.2919
108280,0003172790-0001-7,REINER B ROBLES JR,TINY GIANT CONVENIENT STORE,3255 BEVERLY BLVD,LOS ANGELES,90057-1017,3255 Beverly 90057-1017,,,,311900.0,"Other food mfg. (including coffee, tea, flavoring, & seasonings)",13,01/13/2020,,"(34.073, -118.2841)",34.073,-118.2841
108586,0003148251-0001-1,CONCEPCION ACOSTA,,4339 S BUDLONG AVENUE,LOS ANGELES,90037-2318,4339 BUDLONG 90037,4339 S BUDLONG AVENUE,LOS ANGELES,90037-2318,311900.0,"Other food mfg. (including coffee, tea, flavoring, & seasonings)",9,12/09/2019,,"(34.0043, -118.2962)",34.0043,-118.2962
108748,0002673140-0001-0,HERBAL BALANCE FOR LIFE INC,,24366 CLIPSTONE STREET,WOODLAND HILLS,91367-1022,24366 CLIPSTONE 91367-1022,24366   CLIPSTONE STREET,WOODLAND HILLS,91367-1022,311900.0,"Other food mfg. (including coffee, tea, flavoring, & seasonings)",3,01/01/2012,,"(34.1789, -118.6566)",34.1789,-118.6566
